name,lat,lon,type,osm_type,osm_id
Fishing Village,10.495381,103.6046228,attraction,node,4263674492
Đài Tưởng Niệm Liệt Sĩ - Nhà Tù Phú Quốc,10.0422794,104.0169475,monument,node,357411246
Suối Tranh,10.1837794,104.0153793,yes,node,357411250
Bao Tang Phu Quoc,10.1928525,103.9674136,museum,node,530845932
Duc Ninh Pepper Farm,10.2100119,103.9850305,attraction,node,1166204872
Nhà Tù Phú Quốc,10.0433355,104.0187062,museum,node,1650640830
Nước Mắm Khải Hoàn,10.2199452,103.9714979,attraction,node,1954274168
Vườn Tiêu Ngọc Hà,10.2113296,103.9834776,attraction,node,1954274170
Ocean View,10.4781141,104.290132,viewpoint,node,2393663971
Pepper Farm,10.3065465,103.9827927,attraction,node,2590497234
Phu Quoc Ridgeback Terrain Raceway,10.2517526,103.9785201,attraction,node,3482735049
Crab Statue,10.4764268,104.2993501,monument,node,3742437950
Sunset Rock,10.4855437,104.2986418,viewpoint,node,4772640619
Floating Seafood Restaurants,10.1817201,104.0523878,attraction,node,5155448723
Pepper farm,10.3276289,103.9552982,attraction,node,5227336425
Ong Rang Garden Resort,10.2705688,103.9271592,attraction,node,5246745123
дикий пляж,10.0881957,103.9863348,attraction,node,6082320085
поворот в Нац.парк,10.3317904,103.9739539,attraction,node,6117199886
Hoàng Mâu PQ,10.1919398,103.994024,attraction,node,6187500387
Little Buddha,10.4854165,104.2996042,monument,node,6205494312
Decoration Of Long Beach Center,10.1911478,103.966663,attraction,node,6356595461
Fausse plage starfish,10.3736782,103.9380437,attraction,node,6359615985
Photo Motifs,10.1507643,103.973782,attraction,node,6361980940
Usine du poivre,10.2137667,103.9900787,attraction,node,6372732789
Bãi Trường Beach,10.1143459,103.9809272,attraction,node,6968353589
Trúc Lâm Hộ Quốc Zen Monastery,10.1105588,104.0283362,attraction,node,7004066885
Snorkeling spot,10.2568503,103.9362179,viewpoint,node,7005393785
Nhun Dun Lich,10.1767105,104.0124741,attraction,node,7111494204
Tiên Sơn Đỉnh,10.1817544,104.0257005,viewpoint,node,7148312785
Start of hike trail to Tiên Sơn Đỉnh summit,10.1757375,104.0265002,attraction,node,7148312985
Buddha Statue,10.4794876,104.2979765,monument,node,8625087353
Tháp Hẹn hò,10.3255252,103.8578929,attraction,node,8679615132
Điểm Tạp Trung Tham Quan Vườn quốc gia Phú Quốc,10.3643268,103.9917269,attraction,node,10736277208
Viewpoint over Kep Beach,10.4791654,104.2962331,viewpoint,node,11054452684
ខ្សែរ៉កលើដើមឈើ,10.4792427,104.2963436,attraction,node,11054470329
Piscine du Grand Ocean Bay.,10.2565008,103.9394008,attraction,node,12339492401
Swimming pool,10.2525829,103.9419241,attraction,node,12348199001
Vườn Tiêu Đức Thạnh,10.2062349,103.9903154,attraction,node,12441398184
Bãi Trường,10.138022,103.9736958,attraction,way,32003769
Khem Beach,10.0358466,104.0323797,attraction,way,152288136
VinWonders Phu Quoc,10.33865,103.8544931,theme_park,way,660104575
Vinpearl Safari,10.339869,103.8958235,zoo,way,753491820
Historic Royal Residence & Gardens,10.47926,104.2905434,residence,way,927604820
Công viên nghệ thuật đương đại Urban Park,10.3286554,103.8621451,park,way,936715110
Bảo tàng Gấu Teddy (Teddy Bear Museum),10.3255936,103.8623621,museum,way,1270360767
Huyền thoại Tre (Bamboo Legend),10.3282672,103.8628476,attraction,way,1270360775
Angkor Beach Viewpoint,10.4978063,104.3020341,viewpoint,node,1063630451
Đình Thần Hòn Chông,10.160689,104.6137489,monument,node,2325759000
Chùa Ông Bổn,10.1620566,104.6146662,monument,node,2325759004
Chùa Vạn Hòa,10.2921765,104.5340372,museum,node,2326845868
Phù Dung cổ tự,10.388533,104.4827743,museum,node,2326969092
Lăng Mạc Cửu忠义祠,10.3852538,104.4831598,monument,node,2326969109
Chùa Phật Đà佛陀寺,10.3867792,104.4835896,museum,node,2326969111
Thạch Động,10.4117699,104.475661,monument,node,2327003316
Bưu điện Kiên Lương,10.2825407,104.6379147,museum,node,2329585163
Sân chơi thiếu nhi,10.2859875,104.6429414,playground,node,2331837122
វិមានឯករាជ្យ,10.4842964,104.3151007,monument,node,3720694787
Hang Cá Sấu,10.1919696,104.6065087,attraction,node,4293342731
Mo So,10.2278799,104.6164286,attraction,node,4293357089
Núi Đèn,10.365727,104.44443,attraction,node,4293357189
Kep butterfly garden,10.4956236,104.3033157,attraction,node,4597686502
Tháp 7 tầng,10.3879752,104.4805595,museum,node,5382283922
Chùa mộ bà cô,10.3856699,104.4796985,museum,node,5385141121
Di tích chùa xà xía,10.4212759,104.454047,museum,node,5435536324
Good place for sunset,10.4762331,104.3005186,viewpoint,node,6982753985
New White Horse,10.4958082,104.3515183,monument,node,8632189951
NƠI AN NGHỈ  BÀ PHỐI SƯ CAO KIM ĐƠN,10.3774983,104.4971895,castle,node,11508264669
Trân Vǎn Án,10.3761556,104.489365,monument,node,11759495569
Buddha,10.3853461,104.4868566,monument,node,11816423104
Bird watching,10.4810311,104.5250635,viewpoint,node,12480444201
Đá Dựng,10.4244319,104.4810048,attraction,way,223838790
Công viên,10.2848522,104.642282,park,way,223985503
Công viên Trần Hầu,10.3812212,104.4888508,park,way,315692179
Công viên Kiên Lương,10.2540074,104.5975706,park,way,979759549
Công viên Văn hoá Bình San,10.3878831,104.4803194,park,way,1035346421
Công viên Tao Đàn,10.3896268,104.4786498,park,way,1035346423
Công viên Trần Công Án,10.3761716,104.4893269,park,way,1035569968
Công viên Kim Dự,10.3774941,104.4792633,park,way,1035569969
Công viên Mạc Cửu,10.3680391,104.4917406,park,way,1035569970
Công viên Hòa Bình,10.3801996,104.4666424,park,way,1064905782
Công viên,10.3849533,104.489253,park,way,1108263995
Công viên,10.388067,104.4839346,park,way,1108264221
Kep Museum,10.4861458,104.3170655,museum,way,1286341442
Nguyễn Trung Trực,10.0112407,105.0832666,park,node,2596351312
Nhà Thiếu nhi Tân Hiệp,10.1103233,105.2783226,playground,node,3738797103
bảo tàng gò,10.2546073,105.1548045,museum,node,4375003890
Khu Trưng bày Tội ác Chiến tranh của Poltpot,10.4992052,104.9083512,museum,node,9991869767
Hồ Tà Pạ,10.4135342,104.9890713,attraction,node,10932916144
KDL Lâm Viên Núi Cấm,10.4952968,105.0183615,attraction,node,11046777432
Đời đời Nhớ ơn Liệt sĩ,10.0383229,105.0795561,monument,node,11456168073
Công viên huyện Tri Tôn,10.4205418,105.0010932,park,way,620770587
Đình thần Nguyễn Trung Trực,10.0118793,105.0795541,attraction,way,684391534
Công viên 16 Hécta,10.0076266,105.078028,park,way,684599251
Công viên Nguyễn Trung Trực,10.0112681,105.0832904,park,way,684600801
Bảo tàng tỉnh Kiên Giang,10.0094628,105.0849628,museum,way,684802066
Công viên,9.9983156,105.0820147,park,way,685242229
Công viên Nguyễn Trung Trực,10.1167076,105.2851786,park,way,686288578
Công viên,10.0134526,105.0869569,park,way,778146368
Di chỉ Nền Chùa,10.1116969,105.1073784,archaeological_site,way,850444814
Công viên 19/4,10.2761322,105.27325,park,way,1107305573
Khu du lịch Hồ Ông Thoại,10.2624444,105.2679826,park,way,1107305751
Công viên Vĩnh Hanh,10.4542156,105.2531156,park,way,1107307940
Công viên Chị Sứ,10.105365,104.894211,park,way,1107308491
Công viên Tân Hiệp,10.1122197,105.2818554,park,way,1107308896
Công viên,10.4944369,104.9086315,park,way,1108263348
Công viên,10.012427,105.0837758,park,way,1108275475
Công viên,10.0120073,105.0852905,park,way,1108275551
Công viên,10.0120291,105.0864991,park,way,1108275573
Công viên,10.0137327,105.0803708,park,way,1108275635
Công viên,10.0085494,105.085335,park,way,1108275826
Công viên Cần Đăng,10.4597018,105.296735,park,way,1153950425
Khu Trưng bày Tội ác Chiến tranh của Poltpot,10.499195,104.9083396,museum,way,1176733783
Công viên Soài Chék,10.4057233,104.9807925,park,way,1176760612
Gò Cây Thị,10.2294566,105.1593623,archaeological_site,way,1182462616
Di chỉ Giồng Cát,10.2328263,105.1629712,archaeological_site,way,1182462617
Di chỉ Giồng Trôm,10.2335127,105.1644333,archaeological_site,way,1182462618
Di chỉ Nam Linh Sơn tự,10.2460015,105.1544782,archaeological_site,way,1182462620
Công viên nước Thanh Long,10.4964364,105.0216367,water_park,way,1189688530
KDL Lâm Viên Núi Cấm,10.4973747,105.0211551,park,way,1189688534
Công viên Nguyễn Trung Trực,10.0112558,105.0832733,park,way,1349606810
Fruit garden,10.0287059,105.732386,attraction,node,951963161
Nhà cổ Bình Thủy,10.066996,105.7496309,archaeological_site,node,1797968016
Nhà Thiếu Nhi,10.4560819,105.6340817,park,node,3763530581
CV Thiếu Nhi,10.4585859,105.6316282,park,node,3763530582
Thống Linh,10.4541305,105.6341063,park,node,3763545372
Bang Lang Bird sanctuary,10.2814588,105.5052518,attraction,node,3918120668
Trại Cá Sấu Long Xuyên,10.3401612,105.4719601,attraction,node,4228397491
khám lớn Cần Thơ,10.036086,105.7883079,museum,node,4374993693
Người tình nhà cổ Bình Thủy,10.0671487,105.7495174,attraction,node,4375003793
Cầu đi bộ Ninh Kiều,10.0370351,105.7912377,attraction,node,4465710189
Cần thơ karaoke,10.0434503,105.7865155,attraction,node,4524319889
Flower market,10.3175013,105.7455567,attraction,node,4578718792
Snake Farm,10.0061686,105.6829008,attraction,node,4644080489
Dat Can tho,10.0660775,105.7469979,viewpoint,node,4714420689
Bờ kè sông Hậu,10.049048,105.7910388,attraction,node,4730514522
Cong vien song Hau,10.0487437,105.7916912,theme_park,node,5177612395
CX so 50,10.2947227,105.6559504,museum,node,5179321726
Công Viên Lưu Hữu Phước,10.0324384,105.7813588,theme_park,node,5211512490
Vườn kiểng ĐHCT,10.0327844,105.7663411,garden,node,5214272376
Nhà cổ Huỳnh Thủy Lê,10.2939176,105.7682978,attraction,node,5227610721
Tượng đài Chiến Thắng,10.0559838,105.7683514,monument,node,5256962158
Khu di tích vườn mận,10.0176477,105.7339623,park,node,5346561555
Bến Phà Tân Lộc - Bằng Tăng,10.1964201,105.610946,viewpoint,node,6274061387
Tarot Museum,10.0348135,105.7833652,museum,node,6278214586
Marche Ong,10.0342057,105.7884618,attraction,node,6711879790
Thành Lai Vung,10.2389277,105.6777297,attraction,node,7227055203
Wittkok Park,10.177289,105.5482029,park,node,7409232409
Roscue Warren Park,10.1769805,105.5473979,park,node,7409232410
Khu du lịch văn hóa Phương Nam,10.35218,105.6721289,attraction,node,8437362637
Công viên Văn Miếu,10.4616143,105.6350897,park,node,8995664039
Đài tưởng niệm 1954,10.4168199,105.6399026,park,node,8995689738
Tượng đài Bông lúa,10.3903544,105.4344836,monument,node,9536055617
Song Ngu Farm,10.0055388,105.7391263,attraction,node,9921294673
Công viên KDC An Khánh,10.0383765,105.755598,park,node,11242047897
Công viên Hồng Phát,10.0245282,105.7496492,park,node,11263075942
Công viên quảng trường Phong Điền,10.0000918,105.6652224,park,node,13274327665
Bảo tàng thành phố Cần Thơ,10.0349853,105.7868039,museum,way,89608604
Công viên Hùng Vương,10.0446351,105.7802843,park,way,89748554
Bảo tàng Hồ Chí Minh,10.0358023,105.7858248,museum,way,90071490
Công viên Đồ Chiểu,10.0372549,105.7873255,park,way,90080529
Công viên Tao Đàn,10.0355755,105.786923,park,way,90080614
Khuôn viên Nông Nghiệp,10.0300314,105.7676632,park,way,119276185
Công viên Lưu Hữu Phước,10.0326777,105.7811613,park,way,119276473
Vườn Bàng,10.0314235,105.7716012,park,way,165794325
XK Club,10.0458321,105.7868348,attraction,way,166905353
Công viên Ninh Kiều,10.0338069,105.7892287,park,way,168524339
Công viên Hai Bà Trưng,10.3823006,105.4419597,park,way,168666478
Công viên Nguyễn Huệ,10.382434,105.4416482,park,way,168666489
Công viên 8/3,10.3847508,105.4385243,park,way,168666503
Công viên Xẻo Trôm,10.3644425,105.440855,park,way,168666907
Công viên Sa Đéc,10.2945813,105.7523732,park,way,168967660
Bảo tàng Đồng Tháp,10.4530003,105.632563,museum,way,169406235
Công viên Văn Miếu,10.4620926,105.6358928,park,way,169423043
Châu Văn Liêm,10.1093057,105.6189756,park,way,225364319
sân thể thao,10.1280404,105.534217,park,way,225364906
CV Thiếu Nhi,10.4595794,105.630882,park,way,374223819
Bãi xe C2,10.0293039,105.7685393,park,way,455035897
Bãi đậu xe C1,10.0310995,105.7700107,park,way,455038118
Nhà lưới thực hành - MDI,10.0278233,105.7640828,park,way,533290595
Công Viên Khu Dân Cư Hưng Thạnh,10.0067031,105.778341,park,way,542682506
Công viên 178,10.0217764,105.7673926,park,way,543238430
Công viên 178,10.0215736,105.7674569,park,way,543238431
Công viên KDC Nam Long ( Nam Long Residential Park ),10.008466,105.7859252,park,way,543243102
Vườn,10.0856264,105.7306219,garden,way,543819936
vườn cây,10.0869309,105.7306972,garden,way,543821046
Sân cỏ,10.0849365,105.7296404,garden,way,543828575
Sân bay Trà Nóc _ Cần Thơ ( Tra Noc_Can Tho Airport ),10.081343,105.716855,garden,way,543842674
Công viên,10.0666536,105.7970434,park,way,659304582
Bảo tàng An Giang,10.3895965,105.4355439,museum,way,671362739
Công Viên Thị Trấn An Châu,10.4438659,105.3879076,park,way,675572450
Khu vui chơi,10.0326713,105.782509,playground,way,684932188
Công viên khu dân cư Tân Thành,10.2616366,105.5882366,park,way,690682596
Công viên Hòa Long,10.2876549,105.659995,park,way,708390239
Công viên Sông Hậu,10.2517316,105.60142,park,way,769028650
Công viên bờ kè Nguyễn Du,10.3911086,105.4368074,park,way,777888641
Công viên Bình Khánh,10.3933311,105.4162242,park,way,777891292
Công viên Bình Khánh,10.3924405,105.4227046,park,way,777891293
Công viên Bình Khánh,10.3928481,105.4237129,park,way,777891294
Công viên Khu dân cư Mỹ Hòa,10.3794859,105.4151183,park,way,777891295
Công viên Trịnh Văn Ấn,10.3760909,105.4316467,park,way,777891296
Công viên Mỹ Qúy,10.3655142,105.4476792,park,way,777891297
Công viên Mỹ Thới,10.3549175,105.4571604,park,way,777891298
Công viên Cờ Đỏ,10.0958517,105.4262848,park,way,777891299
Công viên Ngã ba Lộ Tẻ,10.3146911,105.4859993,park,way,854573822
Tượng đài lưu niệm xã Phong Hòa,10.1712571,105.6707791,monument,way,914641554
Bùng Binh Lai Vung,10.2566885,105.5931887,park,way,922816142
Công viên Phan Văn Út,10.2993758,105.7666186,park,way,1061579248
Công viên 2 Tháng 9,10.1039911,105.7573139,park,way,1061941524
Công viên Sông Hậu,10.0445555,105.7929982,park,way,1062498634
Công viên Cờ Đỏ,10.1011145,105.424438,park,way,1107303481
Công viên 3/2,10.2230697,105.3993297,park,way,1107303963
Công viên Đại học An Giang,10.3708332,105.4313698,park,way,1107309141
Công viên Tây Sông Hậu,10.369979,105.4536174,park,way,1107763119
Công viên Thanh Niên,10.3762013,105.4425375,park,way,1107763648
Công viên Nhà Thiếu Nhi,10.3787935,105.4478675,park,way,1107763847
Công viên,10.0201501,105.3879702,park,way,1110290646
Công viên An Bình,10.0096891,105.7375529,park,way,1153689641
Công viên bờ sông KDC An Khánh,10.0446554,105.7558294,park,way,1212216289
NHÀ DÁT VÀNG CẦN THƠ,10.0427612,105.7581955,attraction,way,1227132982
Zone 7 Coffee,10.0431628,105.758894,attraction,way,1227132983
Khu di tích Nguyễn Sinh Sắc,10.4475019,105.6318117,park,way,1244769154
Khu du lịch Quýt Hồng Lai Vung,10.2778009,105.6079257,attraction,way,1430586858
Bảo tàng Quân khu 9,10.0360876,105.7852318,museum,relation,1326051
Quảng trường Thành phố Sa Đéc,10.2916696,105.7537633,park,relation,16911656
Di Tích Lịch Sử Rạch Gầm Xoài Mút,10.3250581,106.2479211,park,node,2722754966
Nhà cổ ông Xoát,10.3533995,106.0147632,attraction,node,4374974796
Làng cổ Đông Hòa Hiệp,10.3465203,106.0079283,attraction,node,4374974797
Nhà cổ ông Tòng,10.3396435,106.0185306,attraction,node,4374992097
Ấp Tây Xã Nhị Bình Huyện Châu Thành,10.4057864,106.2255023,museum,node,4758804853
Hung khánh trung B,10.1814608,106.2328828,museum,node,4758805136
NGÃ TƯ,10.0880434,106.2874912,museum,node,4758805137
Phường Nhị Mỹ Cai Lậy,10.4045218,106.1538035,museum,node,4758805141
Ngã rẽ,10.3767948,106.0709395,museum,node,4758805142
Văn Thánh Miếu Vĩnh Long,10.2428887,105.9850273,attraction,node,5236287130
An Bình,10.2957019,105.980439,attraction,node,5257696126
Xeo quyt relic site,10.3384755,105.8048855,attraction,node,5367411121
Local music and fruits tasting,10.3230803,106.0387382,attraction,node,5517955825
Nhà cổ Cai Cường,10.280653,106.0103408,attraction,node,6191483685
honey bee farm,10.3228265,106.0380703,attraction,node,6373589879
Co. Farm island caygiong. Com,10.2727667,105.9885459,attraction,node,7216676187
Cong ty TNHH MTV nong Trang island,10.2722431,105.9933932,attraction,node,7216677286
128 hậu thuận hậu thành cái bè tiền giang,10.3717413,105.9976141,viewpoint,node,7368429486
Di tích Khám lớn Vĩnh Long,10.2569302,105.9720366,museum,node,9236847138
Pham Van Lo Garden,10.3107795,106.0035513,garden,node,11472257346
Khu Du Lịch Vinh Sang,10.2704084,105.9536573,attraction,node,11630422969
Orchard,10.3216264,106.0386876,attraction,node,12331134801
Mr. Kiets Historic House,10.3379785,106.0217796,monument,way,206878071
Đền thờ Phạm Hùng,10.2246916,105.9896186,monument,way,209302273
Công Viên Sông Tiền,10.2563197,105.9680977,park,way,254021408
Trại rắn Đồng Tâm,10.3510453,106.2963405,zoo,way,463574874
Công viên Cai Lậy,10.4057921,106.1169885,park,way,530234457
Công viên Thành phố Vĩnh Long,10.2518254,105.9740612,park,way,532654804
Công Viên Mậu Thân,10.2342344,105.9646067,park,way,532654813
Công viên SVĐ,10.0660065,105.8075989,park,way,539954305
Công viên Thị xã Bình Minh,10.0700323,105.8209978,park,way,659304563
Công viên Phạm Hùng,10.2582822,105.9570973,park,way,702175355
Công viên Tôn Đức Thắng,10.2447295,105.9744318,park,way,769188151
Công viên Khu dân cư Phường 9,10.2437411,105.9419187,park,way,790939026
Tượng đài Chiến thắng Mậu Thân,10.2340018,105.9644752,monument,way,837372445
Bảo tàng Vĩnh Long,10.2572478,105.971378,museum,way,1000681700
KDL Trường An,10.2732086,105.9309228,park,way,1126965453
Nhà bia Kỷ niệm Thành lập Chi bộ Đảng đầu tiên Tỉnh Vĩnh Long,10.1955698,106.0105526,monument,way,1378828314
Công viên Khu dân cư Phường Trường An,10.2584453,105.9345943,park,way,1380165844
Công viên Đài Truyền hình Bình Minh,10.0566886,105.8208612,park,way,1414054480
Công viên Cầu Cồn Chim,10.2616629,105.9472052,park,way,1418855655
Khảo Cổ Gò Thạnh,10.3902407,106.4594001,archaeological_site,node,1270298420
Mộ Cổ Hoà Bình,10.3912335,106.5828804,monument,node,1270298492
Biển Gò Công,10.2902529,106.780734,attraction,node,4139586001
Rừng Ngập Mặn Vàm Sát,10.489441,106.7958226,attraction,node,4187221190
nhà cổ bên kia cầu,10.234146,106.3707828,museum,node,4374974795
bảo tàng Gò Thành,10.3904637,106.4596284,museum,node,4374995393
Nhà cổ bỏ hoang,10.3602321,106.4870903,attraction,node,4375003690
Phường 8 Thành phố Bến Tre,10.2359501,106.3870274,museum,node,4758804848
ẤP BÌNH TẠO XÃ TRUNG AN,10.3497469,106.3360172,museum,node,4758804852
NGÃ TƯ,10.0685774,106.3639612,museum,node,4758805138
TÂN TRUNG,10.0641108,106.3983264,museum,node,4758805139
Đường Đoàn Thị Nghiệp,10.3662285,106.3512678,museum,node,4758806821
XÃ AN THẠNH THỦY,10.3272739,106.4621553,museum,node,4765880121
Nhà Thờ La Mã,10.0987573,106.4776227,viewpoint,node,5027534021
Tan Long,10.3464154,106.3766881,attraction,node,5661406822
Quy,10.3342589,106.3846369,attraction,node,5661418822
Phung,10.3354008,106.3634983,attraction,node,5680616724
Hồ Trúc Giang,10.2391515,106.3789615,park,node,6280137428
Đập Ba Lai,10.1444559,106.6323923,viewpoint,node,6460785287
Khu du lịch Thới Sơn,10.34112,106.3596644,viewpoint,node,7013181685
PPC hall,10.2355737,106.3733154,castle,node,8712116018
Công viên Trần Văn Ơn,10.2384915,106.3770412,park,node,9911660993
Trường Mầm Non Đại Định,10.25913,106.4259577,park,node,10574527141
Nhà Văn Hóa Đại Định,10.2587893,106.4257767,park,node,10574535587
Vòng Xoay Hữu Định,10.2647905,106.4066882,monument,node,10574657689
Vòng Xoay Giao Long,10.2944889,106.4196765,monument,node,10574722977
Bia Chiến Thắng,10.264084,106.4091231,monument,node,10579241729
Tượng đài anh hùng Trương Định,10.3591112,106.6749749,monument,node,10608268024
Công Viên Mỹ Hóa,10.220858,106.3514112,park,node,10759118855
Khu Du Lịch Quê Dừa - Quê Dừa Restaurant,10.3283572,106.353118,attraction,node,10800986234
Coconut opening,10.1668055,106.385839,attraction,node,12336559101
Pangasus farm,10.1722062,106.3735033,attraction,node,12337455901
Công viên tượng đài,10.2421204,106.3758597,park,way,230395173
Bảo tàng tỉnh,10.23506,106.3742263,museum,way,230395519
Công viên đèn,10.2401606,106.3757357,park,way,230395981
Công viên Bến Tre (hay gọi là CV Đàn Đá),10.237697,106.375862,park,way,230805745
Công viên thiếu nhi,10.2402334,106.3763306,park,way,231680733
Công viên Hoàng Lam,10.2330664,106.3680594,park,way,231685108
Bảo tàng Tiền Giang,10.3630033,106.3659483,museum,way,265244998
Công Viên Lạc Hồng,10.3524037,106.3670803,park,way,266573330
Công viên Vĩnh Tràng,10.3617151,106.373187,park,way,266761436
Công Viên Tết Mậu Thân,10.358565,106.360597,park,way,273715918
Tượng Đài Tết Mậu Thân,10.3618898,106.360999,attraction,way,427344882
Nông trại Hải Vân,10.1576571,106.617642,park,way,570670599
Mỹ Chánh,10.1167343,106.5815989,park,way,696791453
Công viên huyện Ba Tri,10.0421259,106.5930269,park,way,712514474
Vòng xoay Tân Thành,10.2588485,106.3613931,park,way,764092577
Vòng xoay Bình Nguyên,10.2484908,106.3556392,park,way,764092578
Công viên Hàm Luông,10.2475017,106.3552485,park,way,764092579
Công viên nhà thờ Rạch Cầu,10.2722906,106.5734198,park,way,780127467
Công viên Bến Tre,10.236569,106.3759149,park,way,1012107577
Công viên Châu Thành,10.3004118,106.357626,park,way,1025088295
Công viên Châu Thành,10.3012312,106.3578526,park,way,1025088296
Nghĩa trang liệt sĩ Mỏ Cày,10.1154116,106.3284159,park,way,1031412596
Công Viên Trần Văn Ơn,10.2384804,106.3765888,park,way,1081410188
Đền Thờ Liệt Sĩ xã Hữu Định,10.2703894,106.3869863,monument,way,1134520817
Công Viên,10.3041517,106.3977411,park,way,1134555860
Công Viên,10.3051989,106.3922614,park,way,1134556127
Nhà trăm cột,10.4826627,106.6914169,attraction,way,1159206296
Công Viên Nước TTC,10.2362666,106.3979798,water_park,way,1165928304
Công viên Mỏ Cày,10.1314486,106.3306175,park,way,1188107810
Công viên Lương Quới,10.1979341,106.4803111,park,way,1188107819
Công viên Giồng Trôm,10.1503835,106.5097315,park,way,1188107822
Dinh Đốc phủ Hải,10.3616931,106.6751507,castle,way,1272644423
Khu du lịch Làng Yến,10.2251584,106.7432208,theme_park,way,1272943371
Công viên khu dân cư,10.250256,106.378998,park,way,1389997951
Công viên khu dân cư Hưng Phú,10.2577373,106.3768821,park,way,1389997952
Công viên Cái Cối,10.2308303,106.3765283,park,way,1390955195
Công viên cầu Cái Cá,10.2339471,106.3714805,park,way,1390963277
Công viên Việt Sinh,10.0470895,106.5852701,park,way,1390987664
Thích ca Phật Đài,10.3746285,107.0705354,attraction,node,1276258153
Cổng Khu du lịch Chí Linh,10.3710949,107.1196423,attraction,node,1276258233
Cross,10.3732035,107.06319,monument,node,2267874377
Đài Liệt sĩ,10.3489051,107.0927071,attraction,node,2297147235
Bạch Dinh,10.3507371,107.0683983,monument,node,2298437578
Di tích Minh Đạm,10.4057242,107.2610718,attraction,node,2653846762
Monkey Island,10.4114941,106.8868156,attraction,node,4139573698
VTS,10.338023,107.0717402,castle,node,4596993489
Bãi tắm Thủy Tiên,10.371436,107.1242939,attraction,node,4898430958
Đài Chiến thắng 27/4/1975,10.497489,107.1671053,monument,node,5537927817
Miow,10.3481898,107.0737924,playground,node,5595939520
Bảo tàng Vũ khí cổ Robert Taylor,10.3511342,107.0748,museum,node,5606336362
Đồi Con Heo,10.3280596,107.0865968,viewpoint,node,6314254009
Hầm Thủy Lôi,10.3793526,107.0591897,attraction,node,6522497649
Khu du lịch Đèo Nước Ngọt,10.3821964,107.2575259,attraction,node,6892187773
Di chỉ Giồng Lớn,10.4494222,107.0701763,archaeological_site,node,6961186104
Boo Kingdom,10.3618836,107.0752242,amusement_arcade,node,7074311962
Cáp treo Vũng Tàu,10.3511062,107.0663621,attraction,node,7370659921
Hồ Mây Park,10.3594711,107.0676503,theme_park,node,7403730668
Đường Sách Vũng Tàu,10.3476497,107.0735975,attraction,node,7409782792
Ancient Artillary Battlefield,10.3286782,107.0826765,attraction,node,10291730841
Buddha,10.3570077,107.0711308,monument,node,11494544919
Vung Tau Hash House Harriers (VTH3),10.3505359,107.0715014,park,node,11601268350
Tượng đài Dầu khí,10.4231695,107.1579313,monument,node,12378262524
Giồng Cá Vồ,10.4121548,106.9244457,archaeological_site,node,13170603922
Chi Cuc Bao Ve Moi Truong,10.3529713,107.0868821,common,way,112232826
Công viên nước Vũng Tàu,10.3657306,107.0847612,theme_park,way,118943765
Công viên Đại An,10.3768096,107.0876886,park,way,118950663
Công viên Thanh Niên,10.499102,107.1796805,park,way,119409664
Công viên Trần Hưng Đạo,10.3422984,107.0773554,park,way,215166891
Công viên Tam Giác,10.3468874,107.0736633,park,way,220617816
Công viên Bãi Trước,10.3438666,107.0742356,attraction,way,220617822
Công viên Lê Quý Đôn,10.3507128,107.0745595,park,way,220753345
Bạch Dinh,10.3507783,107.0685886,attraction,way,220753354
Công viên Nghinh Phong,10.3241979,107.0863834,park,way,222004462
Tượng Chúa Kitô Vua,10.3265012,107.0845207,attraction,way,235008112
Công viên Tao Phùng,10.3244489,107.0856287,park,way,235097274
Công viên Tượng đài Dầu khí,10.4233004,107.1575674,park,way,242837487
Công viên Lê Thành Duy,10.4975976,107.1689695,park,way,253054341
Công viên Đài Chiến thắng Bà Rịa,10.4975509,107.1669786,park,way,253056195
Nhà anh Lê Thành Duy,10.4949036,107.1715243,museum,way,253631849
Cổng chào Bà Rịa,10.4996383,107.1583036,attraction,way,254752637
Công viên Long Điền,10.4856331,107.2122868,park,way,256321929
Công viên Võ Thị Sáu,10.4896959,107.2703011,park,way,259046004
Công viên Phước Hưng,10.4194654,107.2182028,park,way,259097818
Dinh Cô,10.3866041,107.2342572,attraction,way,259198631
Công viên Thỏ Trắng,10.3519271,107.1009581,theme_park,way,259375905
Niết Bàn Tịnh Xá,10.3306313,107.0767986,attraction,way,259518443
Đền thờ Liệt sĩ huyện Long Điền,10.4896012,107.2248927,monument,way,271697181
Công viên Lò Vôi,10.4177497,107.2184176,park,way,321072591
Đền thờ Võ Thị Sáu,10.489471,107.2703882,monument,way,410573820
Đền Liệt sĩ,10.4276548,107.2901423,monument,way,550384196
Đền thờ Liệt sĩ xã Phước Hội,10.4544994,107.2852667,monument,way,564325039
Công viên Yên Thế,10.4984616,107.1933521,park,way,566035999
Công viên Hòa Bình,10.4865944,107.1757481,park,way,567825928
Nhà lưu niệm Võ Thị Sáu,10.4891668,107.2690334,museum,way,569352552
Nhà Tròn,10.4973766,107.1674846,attraction,way,577760733
Vườn cây Cường Để,10.3470854,107.0783928,park,way,580493839
Bảo tàng Bà Rịa-Vũng Tàu,10.3505392,107.0696808,museum,way,580493869
Đền thờ liệt sĩ Phường Phước Trung,10.4904521,107.1754675,monument,way,604579700
Nhà Lớn Long Sơn,10.454398,107.0962362,museum,way,614449966
Công viên Hoàng Xuân Hãn,10.3915253,107.1215175,park,way,672383346
Công viên 217 Nguyễn Hữu Cảnh,10.3863985,107.1088045,park,way,672383386
Đền Liệt sỹ căn cứ Minh Đạm,10.405898,107.2608987,monument,way,736945163
Đền thờ Liệt sĩ xã An Nhứt,10.4832138,107.2496754,monument,way,740715594
Công viên Văn hoá thể thao Bàu Thành,10.4882703,107.2279276,park,way,741239642
Đài liệt sĩ,10.3489604,107.0927903,park,way,743778551
KDL Sinh Thái Du Sơn,10.4614882,107.0829456,park,way,743798641
Di tích nhà má Tám Nhung,10.3702741,107.0744531,museum,way,744059371
Công viên Kim Tơ,10.4086264,107.1932468,park,way,757341497
Bùng binh Long Toàn,10.4876579,107.1920827,garden,way,786548083
Kidz City,10.4960879,107.1731498,playground,way,786548118
KDL San Hô Xanh,10.338682,107.0924554,park,way,788721493
Đức Mẹ Bãi Dâu,10.3714531,107.0624465,monument,way,790529433
Công viên Thuỷ Giang,10.395808,107.1066797,park,way,790787185
Nhà thờ Vũng Tàu,10.3461195,107.0773646,attraction,way,791795169
Khu trò chơi thiếu nhi số 9,10.4148034,107.1978038,playground,way,793095293
Công viên An Hải,10.3807038,107.1147064,park,way,833733606
Local Garden Places,10.4146968,107.2124919,park,way,874946718
Công viên sau nhà thờ,10.4229945,107.2217316,park,way,875196271
Công Viên Cần Thạnh,10.4132278,106.9737697,park,way,895209247
Công viên Bà Rịa,10.4995683,107.1879131,park,way,1092256296
Khu vui chơi Bàu Thành,10.4869297,107.226567,playground,way,1337857600
Công viên Chiến Thắng,10.4848488,107.1812159,park,way,1338225804
Công viên Tô Ngọc Vân,10.3544072,107.098348,park,way,1339366707
Công viên Đất Đỏ,10.4892557,107.2695284,park,way,1409964975
Quảng trường Trưng Vương,10.3483997,107.0756633,park,relation,11000387
Công viên Ao cá,10.3319054,107.0843962,park,relation,18360640
Hồ Cốc,10.498524,107.4708041,viewpoint,node,1276258120
KDL Hồng Ph,10.470678,107.3743351,attraction,node,1276258249
đất,10.464202,107.3150394,attraction,node,9186621717
Khu du lịch Gió Biển,10.471116,107.4288466,park,way,739078469
Hồ Tràm Complex,10.4705274,107.3719996,attraction,way,816401592
Windy Stone,10.6703426,103.2620289,viewpoint,node,3730618038
High Point Zip Line,10.6638678,103.2718178,attraction,node,4576659694
Snorkeling,10.5780143,103.292791,viewpoint,node,6521969509
Palm Beach Bungalow Resort,10.7540118,103.2557951,hotel,way,264107664
Two Golden Lions,10.6106376,103.5236432,attraction,node,995506416
Islands View,10.6376866,103.5090821,viewpoint,node,2199392327
Kbal Chhay Waterfall,10.6749715,103.6090353,attraction,node,2739252084
One Golden Lion,10.6425107,103.5039046,monument,node,3628498769
រថយន្តបុរាណ,10.6378444,103.5092573,museum,node,3784030592
រង្វង់មូលរាម,10.5854588,103.6446967,monument,node,3875836525
Dragon Head,10.6094829,103.512958,monument,node,3997187926
Coral (snorkel),10.5077437,103.579377,attraction,node,4263690990
Mango plantation,10.505083,103.5868775,attraction,node,4263705089
Waterbuffalo Statue,10.6339419,103.4995255,monument,node,4807539834
Shang Hai KTV,10.6110217,103.5217581,attraction,node,4832863924
Antonov 24B Plane,10.6378031,103.5091234,monument,node,4934959651
ប្រាសាទព្រះវិហារចម្លង,10.6313079,103.5071864,monument,node,5928270164
The Dive Shop Cambodia,10.6079275,103.5230015,attraction,node,6197832318
កោះពស់,10.6290063,103.4858125,viewpoint,node,7755163386
រង្វង់មូលព្រះថោងនាងនាគ,10.5651268,103.585675,monument,node,8654631020
រង្វង់មូលព្រះសីវ,10.5326856,103.6152865,monument,node,8654631677
猴山,10.6201772,103.4966807,park,node,11666056562
蛇岛,10.6289011,103.4844432,park,node,11666072645
The Plateau,10.9880373,103.7127098,viewpoint,node,12450629801
Shipwreck,10.6893171,103.543621,attraction,node,12555869318
半岛湾海边广场（Seaside Plaza）,10.6038778,103.5168226,park,node,12592561524
幸福石（ថ្មសុភមង្គល）,10.604275,103.5176595,attraction,node,12592564828
Event Area,10.6245871,103.5246679,attraction,way,210388146
Free Living Monkeys,10.6203654,103.4973013,attraction,way,229246815
សួននាគរាម,10.585458,103.6446954,park,way,384283128
សួន​ឯករាជ្យ​ក្រុង​ព្រះសីហនុ,10.630976,103.506727,park,way,627966985
White Elephant Cave,10.5662063,104.2844766,attraction,node,1063576333
Stupa,10.5667964,104.2844689,monument,node,1063576358
White Horse,10.5500643,104.2908432,monument,node,1650462082
Bokor Viewpoint,10.6201366,104.0285444,viewpoint,node,1650510819
Vietnamese Friendship Monument,10.6058915,104.1852763,monument,node,2562996303
Saltworker's Monument,10.6068597,104.1828777,monument,node,3143485032
Popokvil Waterfall,10.6591965,104.0510278,attraction,node,3850759180
Phnom Chhngok Cave Temple,10.6422353,104.2696352,attraction,node,3971467859
River Rapids - Tubing,10.671055,104.1300418,attraction,node,4336532590
Tada Waterfall,10.6746218,104.1006301,attraction,node,4601922321
Bat Cave,10.5654057,104.2844665,attraction,node,4613031690
Kampot Viewpoint,10.5005597,104.2978409,viewpoint,node,4646432089
Prek Thnout Rapids,10.6141455,103.9560711,attraction,node,4985808896
Mangrove Forest,10.5131652,104.2874571,attraction,node,5162834821
រមណីយដ្ឋានទឹកជ្រោះរំដួល,10.5723118,104.0789138,attraction,node,5564377472
ផ្កាភ្លើង,10.6408262,104.1677491,attraction,node,5640396821
"Epic Arts Dance, Old Cinema",10.6094791,104.1812959,attraction,node,6308020224
500 'Rice' Fields (rock fields),10.6856839,103.9778532,attraction,node,7610538206
Daung Te Resort,10.6637952,104.1451114,water_park,node,7736233350
សហគមន៏ ព្រៃកោងកាង ត្រពាំងសង្កែរ,10.5692406,104.2415334,attraction,node,7810234485
ទុរេនធំ,10.6106025,104.1815125,monument,node,8123348767
Parc aquatique - Entanou Slide,10.6696615,104.1585586,attraction,node,10752517905
សេះសមុទ្របាញ់ទឹក,10.6048756,104.1798702,monument,node,12006846296
Bokor Buddha-Statue,10.7095371,103.9546536,monument,node,12014593972
ចំការស្ត្របឺរីបូកគោ,10.6545153,104.0614257,attraction,node,12056243070
Teuk Chhou Zoo (closed),10.665133,104.1369959,zoo,way,486497731
Meditation Stone,10.7033745,103.9789189,attraction,way,516414591
Temple Shape Stone,10.6970561,103.9794498,attraction,way,516414592
Sacred Meditation Area,10.7128109,103.9589619,attraction,way,516417465
Nepenthes Flowers,10.6948797,103.9624909,attraction,way,516417466
River Park,10.6698018,104.1586263,attraction,way,522600738
Old Colonial Catholic Church,10.6270151,104.0225119,attraction,way,634697197
ដំណាក់​ស្លា​ខ្មៅ,10.6199018,104.0764336,attraction,way,876466695
100 'Rice' Fields (rock fields),10.661298,104.009566,attraction,way,977799087
ព្រះបាទជ័យវរន្ម័នទី​ ៧,10.9895196,104.7774149,museum,node,1765739210
Kiri Sela,10.5755211,104.4706954,attraction,node,2582449755
Chitapich Mountain Big Buddha Sculpture,10.6497379,104.7237494,monument,node,3245708919
Salt workers statue ,10.5289922,104.3689753,monument,node,4127247589
Romleach Lake,10.9137413,104.5017814,attraction,node,4682865651
វិមានឯករាជ្យខេត្តតាកែវ,10.9885053,104.7826867,monument,node,4959706958
ចំឡាក់ផ្កាឈូក (ចម្លាក់),10.9888987,104.7835059,monument,node,4959712745
ស្តូបអនុស្សាវរីយ៍មិត្តភាព កម្ពុជាវៀតណាម,10.9899957,104.7840106,monument,node,4960063903
Water Pond Cave,10.5799301,104.4712197,attraction,node,5047121248
Patio Pepper Plantation in Kep,10.5034523,104.3202323,attraction,node,5470940722
UN PRING,10.9369515,104.7362048,castle,node,5482780021
ផ្ទះបងអូក,10.8135654,104.5772374,viewpoint,node,6081094286
លោកយាយម៉ៅ,10.716399,104.3133809,attraction,node,8128627213
Kids Fun Park,10.9926637,104.7830663,theme_park,way,148588339
សារមន្ទីរខេត្តតាកែវ,10.9923,104.7819584,museum,way,1159231744
Núi Sam,10.6769399,105.0766657,attraction,node,4293357289
Năm Giếng,10.5993783,104.9860519,attraction,node,4344121490
Lên 5 ông,10.6034507,104.9889191,attraction,node,4344147191
ប្រាសាទភ្នំបាយ៉ង់,10.6412136,104.8431799,archaeological_site,node,4467210190
Chruos Phaok Waterfall,10.628483,104.85845,attraction,node,4467215889
Út xìtrum,10.8977089,105.1812283,viewpoint,node,4547564790
Bayong Stair point,10.6410067,104.8447241,attraction,node,4646437091
បា្រសាទអាស្រមមហាឫស្សី,10.964135,104.9867917,archaeological_site,node,4683903892
tba trường tbt,10.5735204,105.2374503,viewpoint,node,4978569221
Trà Sư,10.578296,105.0567528,attraction,node,5226195621
Kênh Xa-tuyt,10.5089932,105.0487467,museum,node,5424237224
Tượng đài Chiến thắng Vĩnh Thông,10.5074791,104.8879034,monument,node,9991869768
Tượng đài Võ Văn Kiệt,10.5077937,104.8698457,monument,node,9991869769
KDL Rừng Tràm Trà Sư,10.5729731,105.0471435,attraction,node,9992439396
KDL Anh Vũ Sơn,10.6090494,104.999298,attraction,node,9992439400
đình thần VTT,10.5765899,105.2162547,attraction,way,166192243
Wat Phnom Da,10.9645298,104.9886804,archaeological_site,way,488130987
សារមន្ទីរអង្គរបុរី,10.9942224,104.97793,museum,way,980395593
Công viên Châu Đốc,10.7092808,105.1234024,park,way,1108259105
Công viên Châu Đốc,10.710783,105.1184168,park,way,1108259203
Công viên,10.7098536,105.1176847,park,way,1108259589
Công viên,10.7017119,105.1074203,park,way,1108260166
Công viên,10.5711998,105.2448729,park,way,1108260510
Công viên,10.5680925,105.2434492,park,way,1108260605
Công viên,10.5679152,105.241383,park,way,1108260812
Công viên,10.5743544,105.2411293,park,way,1108260997
Công viên,10.5755277,105.24011,park,way,1108261072
Công viên,10.5801219,105.2332898,park,way,1108261283
KDL Cáp treo Núi Sam,10.6851937,105.079048,park,way,1108262028
Công viên,10.6821312,105.0792883,park,way,1108262113
Công viên,10.6839161,105.0768097,park,way,1108262160
Công viên,10.6171157,104.9965814,park,way,1108262450
Công viên,10.6230446,105.0087347,park,way,1108262648
Công viên Mỹ Đức,10.6629558,105.1858213,park,way,1154060732
Nhà trưng bày cổ vật,10.6816577,105.0793173,museum,way,1159104316
Nhà bia tưởng niệm liệt sĩ Thị trấn Nhà Bàng,10.6193403,105.0193886,monument,way,1159194084
Quảng trường Hữu Nghị,10.6006438,104.9503382,park,way,1159194090
Quảng trường Hữu Nghị,10.5999987,104.9503797,park,way,1159194091
Công viên Vĩnh Thông,10.5074775,104.8878909,park,way,1176733779
Công viên Vĩnh Thông,10.5075744,104.8880292,park,way,1176733780
Công viên nước Hải Đến,10.6980378,105.12897,water_park,way,1189409898
Công viên xã Vĩnh Châu,10.6505366,105.114968,park,way,1380796591
Ngã 3 Thanh Bình,10.55441,105.4972833,park,node,3636084937
công viên chợ mới,10.8081591,105.3416588,monument,node,4536002195
nghĩa trang tưởng niệm,10.8138549,105.3522237,monument,node,4536085190
INTERNET CHÍ THÀNH,10.8187096,105.3444256,museum,node,4597973790
Photocopy cảnh hào 2,10.8152042,105.3431581,museum,node,4598040190
Tượng đài Chiến thắng Giồng Thị Đam,10.8167746,105.5051707,monument,node,4657198090
bến tàu đi cambuchia,10.8683918,105.3199972,museum,node,4672976491
cau phu hung,10.5923414,105.3075991,museum,node,4902957522
Hội lạp miếu,10.7146686,105.3452933,museum,node,5424213524
Vườn Xoài 5 Tâm,10.8052194,105.326051,garden,node,5963322700
ក្រាំងលាវ (ភូមិ),10.9839316,105.6007747,viewpoint,node,8226951017
càphe Võng - gió mát,10.5208561,105.3148569,attraction,node,10548902010
Di tích Đốc Binh Vàng,10.5516634,105.4829569,park,way,373171928
Công viên Bàu Sậy,10.8921746,105.7795522,park,way,529113219
Công viên Nguyễn Thị Xuyến,10.8028038,105.3440511,park,way,1061420945
Công viên Võ Nguyên Giáp,10.8093863,105.3518982,park,way,1061420946
Công viên 30 tháng 3,10.8912535,105.7869365,park,way,1062070363
Công viên Trần Thị Viết,10.8899747,105.7806359,park,way,1062070364
Công viên Trần Thị Viết,10.8865119,105.7863359,park,way,1062070365
Công viên Trần Thị Viết,10.8800719,105.7970437,park,way,1062070366
Công viên Trần Thị Viết,10.8836563,105.7910825,park,way,1062070367
Công viên,10.5181406,105.3221229,park,way,1108261351
Công viên,10.5167207,105.3197143,park,way,1108261384
Công viên huyện Chợ Mới,10.5505056,105.403205,park,way,1159707865
Công viên Phú Mỹ,10.5836733,105.357447,park,way,1159707890
Công viên Phan Văn Túy,10.5598212,105.4883256,park,way,1160002163
đồng sen Tháp mười,10.6044173,105.8210685,attraction,node,4417074190
ĐƯỜNG CẤM,10.6085712,106.0457871,museum,node,4763674621
Khu di tích Gò Tháp,10.6039837,105.8281274,archaeological_site,node,8459780109
Căn cứ Tỉnh uỷ Long An,10.812976,106.2208265,museum,node,10969478979
Công viên 30 Tháng 4,10.7772413,105.9379221,park,way,335039126
Căn cứ Xứ ủy Nam Bộ,10.6365071,105.9059661,museum,way,1160002195
Căn cứ Xứ uỷ Nam Bộ,10.6357808,105.9057783,monument,way,1160002197
Công viên Bạch Đằng,10.7800955,105.932925,park,way,1175388059
Khu Di tích Núi Đất,10.7696122,105.9388483,park,way,1175724274
Căn cứ Xứ uỷ Nam Bộ,10.6363762,105.9060065,park,way,1180996208
Đồn Long Khốt,10.9212404,105.8391487,museum,way,1181158069
Trung tâm Văn hoá Thông tin Thạnh Hoá,10.655538,106.1808206,garden,way,1183970319
Nhà Thiếu Nhi Tỉnh Long An,10.5379712,106.4086363,playground,node,980138037
Câu Lạc Bộ Bida,10.5369406,106.4133537,common,node,980138954
Bảo Tàng Địa Chất,10.7849957,106.7076753,museum,node,1001114513
Euvipharm Pharmaceutical J.S.C,10.7967892,106.4917898,viewpoint,node,1738863726
Phòng Truyền thống Thành Đoàn,10.7820744,106.6977069,museum,node,1770193818
Hồ Con Rùa,10.782588,106.6958888,monument,node,1770193841
Nhà Thiếu Nhi Quận 1,10.7849924,106.698682,museum,node,2230447361
Bảo Tàng TMA,10.8558846,106.6314853,museum,node,2297794195
Công Viên Bình Qưới,10.831063,106.744718,park,node,3208609061
Di tích Lịch sử Ngã ba Giồng,10.8685215,106.5604153,park,node,3352030874
Bảo Tàng FITO,10.7762825,106.6719677,museum,node,4110078089
Công Viên Ven Sông An Phú Hưng,10.7362462,106.7099951,attraction,node,4111509589
Tara & Kys Art Gallery,10.7764073,106.7048655,gallery,node,4131348295
Bảo Tàng Tư Nhân Đức Minh,10.8408403,106.765554,museum,node,4131498489
Địa Đạo Phú Thọ Hòa,10.7842199,106.6312668,attraction,node,4131725789
Hội quán 99,10.904278,106.70301,attraction,node,4196982091
Khu Du Lịch Bình Qưới,10.8294989,106.7392535,attraction,node,4223398172
Nhà Thờ Củ Chi,10.9689302,106.4864335,monument,node,4315785890
Nhà Ngoại Riô,10.6327743,106.6733364,viewpoint,node,4339500392
Công Viên Sala,10.7712694,106.7250457,park,node,4384760684
Cảng cát lái,10.7638189,106.7934577,viewpoint,node,4452998291
BĐS Đại Phú Tín,10.9746023,106.6784183,viewpoint,node,4601176590
គុយទាវ Hong Phat,10.7714656,106.6833353,attraction,node,4720321393
Cà Phê Điêu Thuyền,10.8439776,106.6553312,attraction,node,4746301227
Khu A Hậu nghĩa,10.8977861,106.3912139,museum,node,4758804844
Hòa Khánh Đông,10.8759072,106.4014433,museum,node,4758804846
Hòa Khánh Tây,10.8758408,106.3997851,museum,node,4758804847
Hòa Khánh Nam,10.8487302,106.4168393,museum,node,4758805131
THÀNH PHỐ TÂN AN,10.5457337,106.405184,museum,node,4759000554
Dốc Shakespeare,10.8797549,106.7978144,viewpoint,node,4828147520
Cầu Phú Cường,10.9809923,106.6433233,viewpoint,node,4960234435
Cầu vượt Sóng Thần,10.8758821,106.7511198,viewpoint,node,4960234436
Disco Travel - Du lịch Quốc Tế Khám Phá,10.8151663,106.6734822,attraction,node,5137981655
Công viên Hoa hồng,10.766783,106.6597925,park,node,5179064421
Cống Rạch Đào,10.5981429,106.3932627,attraction,node,5302995921
Sculpture Garden,10.7747342,106.6938172,attraction,node,5378089323
Tanaka Tei,10.8007878,106.6434633,museum,node,5382283921
Công viên bờ sông Sài Gòn,10.7716671,106.7097359,attraction,node,5388462723
Công viên thập cẩm effen,10.9008132,106.4616575,museum,node,5420576423
Cầu Đi Bộ Số 7,10.7458291,106.6543332,attraction,node,5433188023
Công ty Tân minh,10.959635,106.7261711,castle,node,5477035524
Công Viên Dương 4,10.7361566,106.6705626,park,node,5894538758
Động vật bò sát,10.7901336,106.7058841,zoo,node,6045632728
Hổ,10.786938,106.7084339,zoo,node,6045632765
Hươu cao cổ,10.7880953,106.7078014,zoo,node,6045633938
Cá sấu,10.7862562,106.7084761,zoo,node,6045633961
Voi,10.7886498,106.7071674,zoo,node,6045634869
Công Viên Văn Hóa Láng Le Bàu Cò,10.7780338,106.5159583,park,node,6539155592
Công viên Mũi Dùi,10.8949283,106.3083158,park,node,6544912028
Công ty Sửa chữa & Mua bán Xe nâng Hoàng Gia tại Bình Dương,10.9230601,106.7686184,park,node,6657302657
Trung Tâm Văn Hóa,10.8965914,106.3978273,park,node,6794512017
Công viên Võ Tấn Đồ (Cv Hậu Nghĩa),10.8950032,106.3991094,park,node,6794512018
Timezone,10.8014074,106.7479453,amusement_arcade,node,6865444732
Phú hồng thịnh,10.9042079,106.7962785,castle,node,6895260942
đất c Phương,10.6265838,106.6432797,viewpoint,node,7003719189
Khu di tích lịch sử Vàm Nhựt Tảo,10.5607985,106.5179686,monument,node,8301659569
Khu du lịch Văn Thánh,10.7982863,106.7156297,attraction,node,9587268685
Công viên Chung cư Phú An,10.8652789,106.6567666,park,node,9587300720
Công viên Bình Phú,10.7435177,106.6310353,park,node,9587375651
Phòng Trưng Bày Chloe,10.724045,106.7205674,gallery,node,9587419906
Công viên Phần mềm Quang Trung,10.8537839,106.6283152,park,node,9587493574
Công Viên Chung cư Sunview Town,10.865904,106.7285126,park,node,9587566623
Công viên Làng Hoa Gò Vấp,10.8420884,106.6565352,park,node,9587618724
Công viên nội bộ chung cư Hòa Bình,10.7670592,106.6610774,park,node,9751109563
Sân bóng đá Hồng Nguyên Phát,10.5370779,106.6830286,park,node,9979036684
Phòng Tranh,10.8101315,106.7312075,gallery,node,10259377070
Khu di tích Hố Lang,10.9571087,106.7493053,park,node,10686251942
Bia tưởng niệm liệt sỹ huyện Tân Trụ,10.5140601,106.5065372,monument,node,10771244591
Tượng đài Chiến thắng Long An,10.5594009,106.4174221,park,node,10771244668
Tượng đài Chiến sĩ Nam Kỳ khởi nghĩa,10.8238343,106.4578924,monument,node,10992357078
Annam Gallery,10.7900269,106.6888392,gallery,node,11040495502
Công viên Phúc An Khang,10.7269751,106.6476137,park,node,11052113104
Công viên Dạ Nam,10.7489187,106.6835781,park,node,11056012164
Bia tưởng niệm Liệt Sĩ xã Phước Khánh,10.6767591,106.7887114,monument,node,11056491238
Đền Thờ Nguyễn Hữu Thọ,10.6441263,106.4864156,museum,node,11096450829
Đài tưởng niệm chiến sĩ Rạch Kiến,10.5855069,106.5886903,monument,node,11097045304
Bia chiến thắng Xóm Chùa,10.5321482,106.602389,monument,node,11111020884
"Công viên Gò Sao , Thạnh Xuân, Quận 12",10.864995,106.6656948,park,node,11217538773
CBES Mini Museum,10.7925945,106.7718011,museum,node,11343699081
Cambodia Bus Companies (many),10.7678095,106.6915258,attraction,node,11430381711
Góc Nhật Bản,10.7800735,106.7044599,attraction,node,11528163339
Bia Truyền thống Vườn Lài,10.7649738,106.6727071,monument,node,11700124145
Đường Sách,10.7805735,106.6996948,attraction,node,11708010270
Some Rockets And Military Vehicles,10.8022168,106.6487042,attraction,node,11827013649
Khu Di Tích Dân Công Hỏa Tuyến,10.8392898,106.5506255,museum,node,12188528266
Parc Spring,10.7912739,106.7714492,park,node,12196463120
Bãi chờ ra ca đi nhậu,10.8534256,106.7965294,attraction,node,12288965901
Ben Nghe Street Food,10.7776249,106.6978228,attraction,node,12351093402
Hải Dương Water Park,10.9721598,106.5024865,water_park,node,12495448277
GIGO JAPAN,10.8020723,106.74016,amusement_arcade,node,12813469664
Dalmatians Gameworld,10.8022241,106.7401393,amusement_arcade,node,12813469672
Infinity Racing,10.8022076,106.7401072,amusement_arcade,node,12816068718
Sân bóng đá,10.7222427,106.704697,playground,node,12824943501
Công viên Đống Đa,10.7758758,106.7017186,park,node,12893877361
Vân Đường Phủ (Nhà cụ Vương Hồng Sển),10.8052246,106.6992364,museum,node,12901443422
tiNi Store,10.7412081,106.679887,amusement_arcade,node,12922496974
City Games Plus,10.7406237,106.6794193,amusement_arcade,node,12922496988
Champion 1250,10.7412152,106.6798254,amusement_arcade,node,12922496996
tiNi World,10.7411359,106.6799423,playground,node,12922496997
Timezone,10.7410702,106.679957,amusement_arcade,node,12922496998
Dream Games,10.7434066,106.6131235,amusement_arcade,node,13102762248
Molly Fantasy,10.7420365,106.6108595,amusement_arcade,node,13102762249
Funny Games,10.7422965,106.6108337,amusement_arcade,node,13102762253
Timezone,10.8010085,106.6166769,amusement_arcade,node,13132951315
Molly Fantasy,10.8021997,106.6185675,amusement_arcade,node,13132951317
Dream Games,10.8015289,106.6171262,amusement_arcade,node,13132951320
Nhà tù Phú Lợi,10.9913018,106.6823101,park,way,32584486
Thảo Cầm Viên Sài Gòn,10.7878079,106.7064568,park,way,32735038
Công viên Lê Thị Riêng,10.7848296,106.6646279,park,way,32735042
Khu du lịch Văn Thánh,10.7975865,106.7154519,park,way,32735045
Công viên Văn hóa Đầm Sen,10.7643335,106.6385329,theme_park,way,32735046
Công viên Lê Văn Tám,10.7882407,106.6937572,park,way,32735082
Khu du lịch Kỳ Hòa,10.77352,106.6721316,park,way,32735084
Công viên Phú Lâm,10.7480109,106.6253245,park,way,32735087
Nhà khách Chính phủ,10.7651628,106.6793984,garden,way,39513493
Bưu điện Trung tâm Sài Gòn,10.7799812,106.7000211,attraction,way,39514793
Chợ Bến Thành,10.7725707,106.6980174,attraction,way,39514795
Dinh Độc Lập,10.777017,106.6954031,attraction,way,39598493
Nhà thờ Thánh Jeanne d'Arc,10.7570204,106.6673851,attraction,way,39619627
Dìn Ký,10.9223014,106.6852946,attraction,way,55880135
Chuồng khỉ,10.7879414,106.7068405,zoo,way,77183584
Công Viên Thành Phố Tân An,10.533171,106.4145405,park,way,84276975
Công Viên Văn Hóa Phú Nhuận,10.8028306,106.6904324,park,way,130506886
Trung Tâm Văn Hóa Quận 7,10.7115715,106.737675,park,way,149904638
Công viên Hòa Bình,10.7605682,106.673803,park,way,164922736
Công viên Hồ Bán Nguyệt,10.7263635,106.7169474,park,way,165271919
Công viên Kênh Đào,10.7227933,106.7143387,park,way,165274629
Công viên Văn Lang,10.7565972,106.6675309,park,way,165398107
Công viên Chi Lăng,10.7777958,106.701581,park,way,165491103
Trưng bày Từ Dinh Norodom đến Dinh Độc Lập,10.7765844,106.6972837,museum,way,165518961
Bảo tàng Chiến dịch Hồ Chí Minh,10.7869832,106.7042406,museum,way,165887838
Bảo tàng Chứng tích Chiến tranh,10.7793793,106.6921923,museum,way,186249226
chung cư 42 Nguyễn Huệ,10.7741102,106.7042197,attraction,way,187895174
Công viên Bách Tùng Diệp,10.7764963,106.6991978,park,way,187895181
Công viên Tôn Thất Thuyết,10.7544628,106.7188283,park,way,188114203
Công viên Phường 5,10.7578428,106.6995318,park,way,188169266
Công viên Dạ Trạch,10.7566613,106.666864,park,way,189017103
Công viên Cửu Long,10.750825,106.6538952,park,way,189027781
Công viên Lê Lợi,10.7473738,106.6493176,park,way,189027784
Công viên Võ Văn Kiệt,10.7507013,106.6684476,park,way,189027787
Công viên Võ Văn Kiệt,10.7501448,106.671212,park,way,189027797
Công viên Cảnh Viên,10.717429,106.7309314,park,way,189082643
Công viên Nam Viên,10.7209712,106.7299248,park,way,189082652
Công trường Mê Linh,10.7752866,106.7063105,park,way,193085674
Công viên Phường 2,10.7487485,106.6836928,park,way,193942947
Bảo tàng Không quân phía Nam,10.805192,106.6606383,museum,way,197995330
Đài tưởng niệm liệt sĩ quận Tân Bình,10.8036382,106.6361317,monument,way,198047406
Công viên Wonderland,10.7307082,106.7113438,park,way,224451400
Công viên Thích Quảng Đức,10.7754166,106.6868051,park,way,238164637
Bảo tàng Không quân,10.8026404,106.6493626,museum,way,238166771
Công viên Làng Hoa Gò Vấp,10.8418657,106.6560378,park,way,262963870
Công viên Ngã sáu Thủ Dầu Một,10.9805095,106.6543031,park,way,264294895
Công viên Phú Cường,10.9784946,106.656628,park,way,264451918
Cầu Mống,10.768069,106.7036691,attraction,way,286297477
Nhà Thiếu nhi Quận Thủ Đức,10.8510961,106.7674495,playground,way,303966854
Công viên sau trường Nguyễn Hữu Huân,10.8472656,106.7681705,park,way,303966869
Công Viên Khối C,10.7686379,106.5609779,park,way,304958182
Công viên quận 9,10.8441831,106.7791511,park,way,306704217
Công viên nội khu,10.7204406,106.7290284,park,way,307668924
Công viên Tạ Quang Bữu,10.7370607,106.6760967,park,way,317064945
Công viên Bông Sao,10.735521,106.6626961,park,way,321611637
Công viên Thảo Điền,10.8076796,106.7402951,park,way,322170776
Công viên Lái Thiêu,10.9044073,106.6999215,park,way,322692842
Công viên Bình Phú,10.7426559,106.632167,park,way,327243239
Ngã tư Đức Hòa,10.823892,106.4571306,museum,way,327266215
KDC Him Lam - Sân chơi,10.8325778,106.7547445,park,way,336071225
Trụ sở Ủy ban nhân dân Thành phố Hồ Chí Minh,10.7765959,106.7009554,attraction,way,341504305
Chung cư City Garden,10.793756,106.7121162,park,way,358154692
Công viên Hà Đô,10.7780126,106.751903,park,way,366651482
Công viên Văn hóa Huyện Cần Đước,10.5069598,106.6043157,park,way,368245997
Công viên thị trấn,10.5064685,106.6029843,park,way,368246000
Bảo tàng Lực lượng Vũ trang miền Đông Nam Bộ,10.7993714,106.6659894,museum,way,376923094
Công viên Nước Đầm Sen,10.7681618,106.6363442,water_park,way,377308558
Công viên Rạch Kiến,10.5854408,106.5886622,park,way,408079972
Công viên Lò Gốm,10.7401542,106.6341862,park,way,419464708
Công viên Chánh Hưng,10.7352702,106.6690506,park,way,420032377
Công viên Bàu Cát,10.7911985,106.6429657,park,way,421603553
Công viên Tân Phú,10.7830771,106.6368073,park,way,421603554
Công viên Phú Hòa,10.769221,106.645149,park,way,421970915
Công viên nước Bình Dương,10.9890586,106.6617128,park,way,425861154
Bảo tàng tỉnh Bình Dương,10.9895718,106.6629,museum,way,425862222
Công viên nước Đại Thế Giới,10.7514674,106.6687782,water_park,way,435329970
Công viên Lãnh Binh Thăng,10.7632268,106.649898,park,way,456799189
Công viên Tân Phước,10.7748658,106.6527849,park,way,457601645
Công viên Nhà thi đấu Tân Bình,10.7949391,106.6541186,park,way,460352585
Lương Thế Vinh,10.7645957,106.6304263,park,way,479699398
Sân Gạch,10.8824512,106.7809757,playground,way,488623193
Cong Vien khu pho 9,10.7514751,106.5959419,park,way,493155210
Công viên Bến Hải,10.8257654,106.6944107,park,way,493157646
Công viên Văn hóa Láng Le - Bàu Cò,10.7775127,106.5159208,park,way,493251141
Đài liệt sĩ Quận 3,10.7910984,106.6830226,park,way,494789263
Công viên Gia Phú,10.8066576,106.6077497,park,way,494796956
Công viên Sơn Kỳ,10.8065843,106.6103095,park,way,494796971
Công Viên Rin Rin,10.8589008,106.5850351,park,way,494799489
Công viên Huỳnh Văn Cù,10.9929645,106.6553918,park,way,494806821
Công viên Tao Đàn,10.7747886,106.6930859,park,way,500888743
Công viên Bãi Cát,10.7571464,106.6282705,park,way,502252357
Công Viên 158 Phan Anh,10.7632943,106.6251618,park,way,503015601
Công viên Vinhomes Central Park,10.7934905,106.7242291,park,way,504571792
Công viên Ao Quan,10.5379954,106.4182847,park,way,513005952
Công viên Phường 5,10.5468272,106.4143328,park,way,513119727
Nhà tưởng niệm Nguyễn An Ninh,10.8567083,106.6127741,monument,way,516639140
Công viên Võ Văn Tần,10.8251237,106.4574911,park,way,520723351
Công viên Tượng đài Nghĩa sĩ Cần Giuộc,10.6079739,106.6710873,park,way,528947997
Công viên KDC Belleza,10.7067116,106.7289307,park,way,532651475
Công viên Tân Trụ,10.5141006,106.5067829,park,way,548990999
Crescent Mall Park,10.7287198,106.71771,park,way,556396336
Đài Tưởng niệm Liệt sĩ Cầu Rạch Chiếc,10.8119488,106.7558259,park,way,568058255
Công viên dạ cầu Sài Gòn,10.7989431,106.7314133,park,way,596819406
Công viên Tượng đài Xe lửa Dĩ An,10.9074553,106.7485895,park,way,607050054
Công viên Tầm Vu,10.8166626,106.7152866,park,way,610240418
Địa đạo Phú Thọ Hòa,10.783678,106.6309697,park,way,612890930
Bãi Cỏ - Trần Nhân Tôn,10.7620131,106.6750724,park,way,617580819
Cong Vien Duong 4,10.7361536,106.670563,park,way,624223367
Công viên Dương Đình Nghệ,10.7625006,106.6499735,park,way,638537793
Chỗ bán chim,10.7550063,106.6583767,park,way,669863611
Cây xanh,10.8760608,106.629834,park,way,675751078
The parkland,10.8762356,106.6291897,park,way,675751079
Công Viên Trúc Lâm,10.8751241,106.6299967,park,way,675751080
Green tree,10.8752999,106.6329448,park,way,675755156
Công viên Khánh Hội,10.757743,106.6976868,park,way,682412572
Công viên Phường 12,10.7641778,106.7042811,park,way,683910660
Công viên Ngã Ba An Phú,10.7916261,106.7525171,park,way,692145121
Vườn hoa Tượng đài Bác Hồ,10.7759898,106.701583,park,way,695895029
Công Viên Lô N Chung Cư Bình Khánh,10.7888944,106.7443047,park,way,701756977
Công viên chung cư Bình Khánh,10.7873065,106.7416962,park,way,701756978
Công viên Nguyễn Sỹ Sách,10.8211038,106.6370041,park,way,715000260
Vườn tượng Danh nhân,10.8705575,106.7794164,park,way,721492603
USSH's garden,10.8692612,106.8000722,garden,way,721852507
Công viên dạ cầu Sài Gòn,10.7999321,106.731014,park,way,724654960
Trại thực nghiệm thủy sản,10.8760334,106.7880988,garden,way,724980639
Vườn hoa Trường Kiểm sát,10.8477773,106.7932517,park,way,727358726
Vườn hoa Nguyễn Thái Bình,10.8720125,106.7885491,park,way,727362148
Cantavil Park,10.7998559,106.7472719,park,way,737793388
đồng cỏ lau 1,10.7164323,106.6606738,park,way,751042594
đồng cỏ lau 2,10.7159615,106.6604375,park,way,751042595
đồng cỏ lau 3,10.7155003,106.6603088,park,way,751042596
đồng cỏ lau 3,10.7150484,106.6602251,park,way,751042597
Công viên Âu Lạc,10.7647893,106.6808399,park,way,756879229
Công viên Thống Nhất,10.8450534,106.7691157,park,way,780121232
Công viên phường Linh Chiểu,10.8550938,106.7636694,park,way,796758309
Công viên Moonlight,10.844981,106.7633984,park,way,799110618
Common area Aqua 2,10.786522,106.7113853,park,way,801519774
Nhà hát Thành phố,10.7767109,106.7032186,attraction,way,801710792
Công viên Lam Sơn,10.7759655,106.7025528,park,way,801710837
Nhà thờ Đức Bà Sài Gòn,10.779771,106.6990579,attraction,way,801950766
Bảo tàng Thành phố Hồ Chí Minh,10.775916,106.6996734,museum,way,802105071
Bảo tàng Mỹ thuật Thành phố Hồ Chí Minh,10.7698768,106.6990696,museum,way,802157427
Biệt thự Nguyễn Văn Hảo,10.7687328,106.6968409,attraction,way,806860791
Công viên đường số 9,10.856979,106.7683715,park,way,806928814
Bảo tàng Hồ Chí Minh,10.7682684,106.7068035,museum,way,808022726
Khu Di tích Bến Nhà Rồng,10.768236,106.7065855,yes,way,808033616
Công viên Thanh niên,10.8484247,106.7879937,park,way,809399808
Isuzu sidewalk park,10.8389516,106.6480129,park,way,815719908
Sidewalk park,10.8380578,106.6515774,park,way,815719909
Mercedes Sidewalk park,10.8370354,106.6556523,park,way,815719910
Công viên Phú Đông Citizen,10.8665902,106.755497,park,way,821391269
Công viên Tân Cảng,10.7988558,106.7211928,park,way,842688454
Công viên Tân Cảng,10.7982246,106.7227374,park,way,842707445
Công viên Tân Cảng,10.7984338,106.7210053,park,way,843094659
Công viên ao Sen,10.7647526,106.7609694,park,way,845522929
Phố đi bộ đêm Kỳ đài Quang Trung,10.7642929,106.6629989,park,way,879519246
Diamond Island Green area,10.7793191,106.7468,park,way,946871159
Công viên Ven sông,10.7379427,106.6980828,park,way,961031437
Công viên Cầu Rạch Ông,10.7515853,106.6929598,park,way,961184057
Khu du lịch Bửu Long,10.9630001,106.794413,park,way,972604563
Công viên Căn hộ Thủ Thiêm Dragon,10.7623999,106.7593227,park,way,996829064
CÔNG VIÊN 8XLUS,10.8312903,106.621888,park,way,1010843998
Bảo tàng Phụ nữ Nam Bộ,10.7841686,106.687398,museum,way,1019040791
Nhà Truyền Thống Thủ Đức,10.8509752,106.7602131,museum,way,1023704926
Công viên Dĩ An,10.8981992,106.7670627,park,way,1024130334
Công viên Văn hóa Võ Tấn Đồ,10.8950729,106.3987152,park,way,1035921543
Công viên Bến Đá,10.638584,106.477552,park,way,1035921606
Tượng đài Bến Lức,10.6429339,106.4828446,monument,way,1035921618
Công viên Đặng Thùy Trâm,10.833372,106.6996477,park,way,1036018818
Công viên Hòa Bình,10.8362202,106.6700273,park,way,1036030790
Công viên Hòa Bình,10.8361971,106.6710236,park,way,1036030791
Công viên Nhà nghỉ Công đoàn,10.8184449,106.7181983,park,way,1037121078
Công viên bờ sông Thanh Đa,10.8181333,106.7156763,park,way,1037121093
Công viên Thanh Đa,10.8164816,106.7221217,park,way,1037121097
Di tích Khu tạm giam Bệnh viện Chợ Quán,10.7532668,106.6792903,museum,way,1044649220
Creative Park,10.7800445,106.7125216,park,way,1046197467
Công viên Bến Bạch Đằng,10.7782279,106.7076346,park,way,1056572948
Công viên công cộng Ventura,10.7704165,106.7897236,park,way,1078097938
Công viên khu 50HA,10.769417,106.7907527,park,way,1081337937
Công viên Văn hóa Gò Vấp,10.8431008,106.6852889,park,way,1084373313
Công viên Thị trấn Hóc Môn,10.8889281,106.5958322,park,way,1084373317
Bảo tàng Tôn Đức Thắng,10.7774203,106.7063661,museum,way,1116582922
Công viên Rạch Tra,10.916182,106.6482304,park,way,1137989915
Công viên Bạch Đằng,10.9802787,106.6468271,park,way,1138068421
Bảo tàng Quân đoàn 4,10.8837665,106.7428221,museum,way,1139091053
Công Viên Rạp Hát Dĩ An,10.9059723,106.7687148,park,way,1144380319
Công Viên Icon Central,10.9332912,106.7487941,park,way,1145090864
Botanica Premier Residential Park,10.8100665,106.669317,park,way,1152451319
Công viên Phường 2,10.542211,106.4119587,park,way,1154164257
Công viên Nguyễn Thị Bảy,10.6064263,106.6707603,park,way,1159206318
Công Viên Văn hóa Đầm Sen,10.7658971,106.6386424,park,way,1168427916
Vàm Nhựt Tảo,10.5611774,106.5173607,park,way,1181428811
Dinh Quận Đức Hoà,10.8243055,106.4570692,museum,way,1183721989
Công viên Chung cư Lý Chiêu Hoàng,10.736477,106.6189449,park,way,1211031817
Công viên Tecco Town,10.7542427,106.5843813,park,way,1211625239
Công viên trung tâm HCA,10.8125677,106.7025268,park,way,1214273251
Công viên Bàu Cát 3,10.7936152,106.6412964,park,way,1216845867
Công viên Vườn Lài,10.7716406,106.6710042,park,way,1217731200
Công viên Đảo Nhật Bản,10.7138256,106.6630317,park,way,1218075300
Công viên Chung cư Hòa Bình,10.7670215,106.66112,park,way,1221231567
Công viên KDC Thành Ủy,10.8230928,106.7199528,park,way,1221493476
Công viên bờ sông Sài Gòn,10.7728095,106.7097475,park,way,1222582961
Công viên thú cưng Empire City,10.7680807,106.7125353,park,way,1222703225
Công viên Đông Thủ Thiêm,10.7911461,106.7775017,park,way,1229027471
Công viên Mười Mẫu,10.7890748,106.7748263,park,way,1229027637
Di tích Lịch sử Văn hóa mộ Phan Châu Trinh,10.804298,106.6618999,monument,way,1230637669
Vườn hoa hướng dương,10.7752902,106.7102869,garden,way,1234926599
Vườn hoa hướng dương,10.7761602,106.7104947,garden,way,1234926600
Vườn hoa hướng dương,10.7758173,106.7099564,garden,way,1234939217
Công viên Sáng Tạo,10.7636806,106.7485745,park,way,1261863635
Vườn bướm,10.7876304,106.7064562,zoo,way,1265945865
Công Viên Kiến Á Q9,10.8043501,106.7830762,park,way,1271043476
Vườn hồng hạc,10.7880476,106.7062411,zoo,way,1275969816
Happyland,10.6430231,106.4590716,theme_park,way,1303838285
Công viên Mỹ Phú,10.7161372,106.7271894,park,way,1306108989
Công viên Lê Hữu Kiều,10.7848719,106.7558638,park,way,1306372763
Công viên nội khu,10.715227,106.7295017,park,way,1307726692
Công viên Phú Xuân,10.6756024,106.7326481,park,way,1308395559
Công viên Lovera Park,10.6896209,106.6433214,park,way,1308470660
Công viên Lovera Park (Khu 2),10.6908799,106.6441964,park,way,1308470661
Eco Green Central Park,10.748533,106.7243437,park,way,1308559978
Công viên Khu nhà ở Quân đội,10.8299861,106.6857046,park,way,1308615149
Nhà bia liệt sĩ phường Tân Tạo A,10.7461226,106.5877847,monument,way,1313270534
Nhà bia ghi danh liệt sĩ phường Bình Trị Đông B,10.7528846,106.6082208,monument,way,1313270569
Dinh quận Hóc Môn,10.8891485,106.5951243,museum,way,1313432455
Công viên Hồ trái tim,10.8062843,106.589531,park,way,1313688027
Nhà bia ghi danh Anh hùng Liệt sĩ phường Hiệp Bình Phước,10.861158,106.7234836,monument,way,1314190858
Vườn Sen Bản đồ UEL,10.8710772,106.7795859,garden,way,1338513874
Khu vườn Tri Thức UEL,10.8708126,106.7775793,garden,way,1338513877
Công viên 310A Hưng Phú,10.7488302,106.6761355,park,way,1358149649
Công viên Hoa Sứ,10.7690115,106.780877,park,way,1369532952
Vườn thú Mỹ Quỳnh,10.9486325,106.4333873,zoo,way,1381739672
Khu vui chơi Vân Lại Viên,10.662897,106.458766,theme_park,way,1383011682
HK BILLIARDS CENTER,10.7816228,106.6626813,playground,way,1385768487
Công viên,10.7258732,106.7252495,park,way,1386912797
Câu lạc bộ Ông Bà Cháu,10.7342183,106.7388265,playground,way,1419892383
Công viên Phong Châu,10.766355,106.6827629,park,way,1422943451
Công viên Gò Đen (Chợ cũ),10.6396704,106.5344246,park,way,1424699773
Vườn thuốc Trạm y tế,10.8772309,106.6780372,garden,way,1429659961
"Bia tưởng niệm các anh hùng, liệt sĩ Phường Thạnh Lộc (Cũ)",10.8780397,106.6782406,monument,way,1429659971
Điểm khai báo tạm trú - tạm vắng KP3B (Cũ),10.8620079,106.6799665,common,way,1430164139
Trạm sơ cấp cứu tai nạn giao thông Quận 12 (Cũ),10.8618523,106.6799419,common,way,1430164140
Nhà truyền thống chiến khu An Phú Đông,10.8618109,106.6924499,monument,way,1431226292
Công viên Thuận Kiều,10.8243771,106.615228,park,way,1442745696
Chợ Bình Tây,10.7493311,106.6510683,attraction,relation,2552505
Công viên 30/4,10.7792539,106.6973425,park,relation,11084516
Công viên 23 tháng 9,10.7695676,106.6939415,park,relation,14939719
Công viên Bến Bạch Đằng,10.7722799,106.7064892,park,relation,15542168
Công viên Gia Định,10.8125387,106.6752341,park,relation,17583696
Công viên Hoàng Văn Thụ,10.8025098,106.6645622,park,relation,17583697
Bảo tàng Lịch sử Thành phố Hồ Chí Minh,10.7879621,106.7049183,museum,relation,17758150
Tượng đài Chiến thắng Tầm Bó,10.7229164,107.2588492,monument,node,3303979417
Bảo Tàng Áo Dài,10.8097524,106.8497582,museum,node,4131348092
Bida A9,10.8790934,106.8070011,playground,node,4809094965
アオザイ博物館入口,10.8115266,106.8515004,museum,node,5397202421
quán tiến hải sản,10.5433797,107.0636076,attraction,node,5419821922
Đài Tưởng niệm Liệt sĩ Trung đoàn 4,10.7169151,107.2413133,monument,node,5516432963
Tượng đài Chiến Thắng,10.6707297,107.0316298,monument,node,5595862925
Hồ Đá Xanh,10.5130387,107.1501977,viewpoint,node,5666383122
cao tốc long thành dầu dây,10.9225306,107.164834,viewpoint,node,6621952885
vòng xoay,10.8394731,106.8108201,attraction,node,6788701449
KDL-Bằng Lăng Tím Hùng Vương-Ấp Chính Nghĩa-Vĩnh Thanh-,10.6626679,106.8584542,attraction,node,7809578885
KDL-Bò Cạp Vàng Hùng Vương-Ấp Chính Nghĩa-Vĩnh Thanh-,10.6591759,106.8560403,attraction,node,7809578985
Xe tăng T-59 955,10.9585198,106.829379,monument,node,9960625533
Pháo 130 K-59-1,10.9586203,106.8295289,monument,node,9960625535
Xe tăng T-59 126,10.9588258,106.8295044,monument,node,9960625536
Trực thăng 831,10.9588728,106.8295819,monument,node,9960625537
Pháo 105 M1-A1,10.9587779,106.8294292,monument,node,9960625538
Máy bay 6144,10.9579754,106.8297075,monument,node,9960625539
Pháo 130 K-59-1,10.9587148,106.829684,monument,node,9960625540
Pháo 130 K-59-1,10.9586663,106.8296017,monument,node,9960625544
Công viên nội khu S2,10.8381351,106.8322977,park,node,11341398688
Công viên nội khu S1,10.8375246,106.8308003,park,node,11341424942
Công viên Ánh sáng,10.8397256,106.8456869,park,node,11347697643
Đất Hàng Gòn,10.883721,107.1970086,castle,node,11993142069
STELLAR 9 LAKE,10.8752974,106.8217369,park,node,12450862520
cầu lê văn việt,10.843635,106.8064678,attraction,node,12505622801
Lã xuân oai,10.83047,106.804746,attraction,node,12505622802
Cầu,10.8295205,106.8037086,attraction,node,12505622803
fpt,10.8355736,106.8082511,attraction,node,12505622901
cty lập thành,10.8323592,106.8061051,attraction,node,12505622902
Sámung,10.8284276,106.802193,attraction,node,12505625301
Hồ Sen Súng,10.8398452,106.8415826,park,node,12647208019
Công viên nước Grand Park,10.839941,106.8472796,water_park,node,12777641246
Cụm công trình Văn hóa,10.9602922,106.813802,park,node,12908570948
Tượng đài tưởng niệm Nông Trường Cao Su Ông Quế,10.844164,107.167831,monument,node,12925494197
Khu du lịch Thác Giang Điền,10.9168296,106.989119,attraction,way,59986402
Đền thờ Liệt sĩ Long Phước,10.5351236,107.2347068,monument,way,129952058
Nhà thiếu nhi tỉnh Đồng Nai,10.9458424,106.816716,park,way,225366637
Công viên Lam Sơn,10.9084709,106.8481238,park,way,232601234
Công viên Long Kiên,10.5009024,107.1829171,park,way,254754595
Công viên Trần Văn Thượng,10.5226476,107.2203033,park,way,254983237
Công viên Lịch sử - Văn hóa Dân tộc,10.8877109,106.8246941,park,way,290307115
Công viên Khu Công nghiệp Biên Hoà 2,10.9077788,106.8561365,park,way,294127405
Công viên Quyết Thắng,10.9489236,106.8221204,park,way,294557192
Công viên Khu dân cư Bửu Long,10.956918,106.8086232,park,way,294557197
Công viên Long Tâm,10.5081957,107.1878394,park,way,309564018
Thiền viện Linh Chiếu,10.6852296,107.0239249,park,way,410990540
Thiền viện Thường Chiếu,10.6839938,107.0263956,park,way,410990541
Khu du lịch Suối Tiên,10.8619124,106.8037899,theme_park,way,463548000
Khu tưởng niệm Bến Nọc,10.8487103,106.8040569,park,way,507538757
Công viên Biên Hùng,10.9521473,106.8211669,park,way,527470174
Công viên Cách mạng Tháng 8,10.9479348,106.8153989,park,way,527470176
Công viên Trung tâm Long Thành,10.78712,106.9495635,park,way,529144428
Công viên Phường Xuân An,10.9315373,107.2446709,park,way,530247697
khu cây trồng xanh,10.6428712,107.1014191,park,way,557281596
Công viên Phú Mỹ,10.579802,107.0612446,park,way,576360484
Đài Liệt sĩ Thị xã Phú Mỹ,10.5859291,107.0539091,park,way,576360493
Công viên 2,10.5840191,107.063615,park,way,576709083
Phòng trưng bày Di tích Núi Dinh,10.529928,107.1200094,museum,way,577760667
Công viên Chiến thắng Long Bình,10.9375894,106.8693193,park,way,583265510
Công viên Nguyễn Thanh Đằng,10.5218166,107.2068831,park,way,594236772
Công viên Sunflower City,10.6870503,106.9282305,park,way,609967448
Công viên Hòa Bình,10.915042,107.24132,park,way,659079714
Khu du lịch Suối Tre,10.9471486,107.2130516,park,way,717517497
Công viên tượng đài Quang Trung,10.8899094,106.8006154,park,way,724836443
Công viên Trung tâm,10.8097903,107.2213868,park,way,727012680
Công viên Tượng đài Chiến thắng Tầm B1,10.7227054,107.258863,park,way,727261667
Di tích Nhà lao Tân Hiệp,10.9635507,106.8423247,museum,way,727388351
Công viên Văn hoá Kim Long,10.6968968,107.246552,park,way,728076205
Địa đạo Long Phước,10.5350598,107.2344526,park,way,741239551
Bảo tàng địa đạo Long Phước,10.5352633,107.233975,museum,way,741239559
Công viên Dương Văn Mạnh,10.5272804,107.227398,park,way,741239603
Trung tâm Văn hoá Phường Hắc Dịch,10.6374183,107.1139157,park,way,745694317
Cửu phẩm Cực lạc,10.6027995,107.0579488,park,way,746297233
Quảng trường tỉnh Đồng Nai,10.9582141,106.828654,park,way,769111901
Nhà văn hóa huyện Trảng Bom,10.9520817,107.0033243,playground,way,966336714
Công viên Kỷ niệm,10.9560655,106.8273154,park,way,972503643
Khu du lịch Sinh thái Vườn Xoài,10.9189347,106.9333547,park,way,974020821
Công viên Dương Tử Giang,10.9630988,106.8425861,park,way,974991933
Công viên Chiến thắng Sân bay Biên Hòa,10.9567247,106.8264031,park,way,975203350
Bảo tàng tỉnh Đồng Nai,10.9584601,106.8298077,museum,way,981161888
Khu du lịch Ngọc Hoa Trang,10.9277912,106.8370496,park,way,981967408
Công viên Đồng Tràm,10.9542785,106.8421978,park,way,1011719927
Công viên Vinhomes Grand Park,10.8420797,106.845603,park,way,1023126419
Công viên 30 Tháng 4,10.9707754,106.8922173,park,way,1123529137
The Amazing Bay,10.8748484,106.8703627,water_park,way,1163348358
Khu du lịch Thủy Châu,10.9009654,106.8192275,park,way,1167526791
Vườn Amber,10.7659554,106.9479396,garden,way,1207058388
Vườn Crimson,10.7656003,106.947845,garden,way,1207058389
Vườn Celine,10.7651974,106.9478694,garden,way,1207058390
Công viên Malibu,10.8325157,106.8430984,park,way,1224026989
Công viên Mahattan,10.8373159,106.8443385,park,way,1224027738
Vườn Amber,10.7664635,106.9458426,garden,way,1322435231
Vườn Crimson,10.7660866,106.9457463,garden,way,1322435232
Vườn Celine,10.7657582,106.9455298,garden,way,1322435233
Công viên Cầu Vồng,10.8417158,106.8376253,park,way,1331225473
Vườn tượng Danh nhân Trấn Biên,10.9621661,106.8016279,park,way,1338507840
Công viên Hắc Dịch,10.6356868,107.1190227,park,way,1345399343
Di tích lịch sử Căn cứ Vùng Bưng 6 xã,10.8258207,106.8064786,park,way,1380599078
Tượng đài kỷ niệm Nổi dậy Nông Trường Cao Su Ông Quế,10.8441577,107.1678393,monument,way,1396540142
Công viên Nguyễn Văn Trị,10.9474994,106.8123536,park,relation,14468360
Công viên Thống Nhất,10.9488686,107.0188499,park,relation,18050732
Chỗ luộc trứng,10.605241,107.5564065,attraction,node,1276258348
cổng đá cổ,10.6727867,107.3859846,viewpoint,node,5104295621
Địa điểm,10.9034456,107.4842612,museum,node,7081523185
Xe,10.9012903,107.4718903,museum,node,7081523186
Xe 2,10.904872,107.4794735,museum,node,7152911385
cắm trại,10.5977312,107.3227324,viewpoint,node,8491110117
Hồng Lợi Garden,10.9821446,107.4226465,garden,node,10598926792
Minera Hot Springs Bình Châu,10.6030998,107.5584397,attraction,node,12990302236
Hot spring water and mud b,10.6035288,107.5580566,attraction,way,112232819
Công viên Bờ Hồ,10.5371842,107.4004949,park,way,366645177
Công viên Sông Ray,10.7638444,107.3488806,park,way,600922907
Di tích Dốc Cây Cám,10.5196628,107.3550856,park,way,737864972
Đền thờ Liệt sĩ huyện Xuyên Mộc,10.5136929,107.4027233,monument,way,739799915
Di chỉ Thành cổ Phước Thuận,10.5140648,107.380811,archaeological_site,way,739799960
Đền thờ Liệt sĩ xã Bàu Lâm,10.6855585,107.3883043,monument,way,747789979
Tropicana Park,10.533926,107.5325124,water_park,way,1372258701
Chay Khpos Waterfall,11.3500408,103.5417812,yes,node,1245510822
Observation Spot,11.4059368,103.478909,viewpoint,node,3424400077
Welcome to Koh Kong,11.0468649,103.7967519,monument,node,7476410228
Chambok eco tourism,11.3811117,104.1144182,attraction,node,5348532177
Naga sculpture,11.3407949,104.0596911,monument,node,6232167286
Thmor Roung National Resort,11.1849719,103.9331078,attraction,way,199999690
Dei Chros Kirirom,11.4108997,104.1436396,attraction,way,1270874773
Ta Mok's Former House,11.0012416,104.7799209,attraction,node,1287006068
រមណីយដ្ឋានស្ទឹងធម្មជាតិដូនកុក,11.4638914,104.7652742,attraction,node,4724359290
សួនកម្សាន្តធម្មជាតិ EM,11.465888,104.7668165,park,node,5208926669
រមណីយដ្ឋានអន្លង់ភ្ញៀវ,11.0735512,104.3209636,attraction,node,5508749388
វត្តគិរីកម្ពុជា,11.1353801,104.3985028,attraction,node,5630098621
សួនសត្វភ្នំតាម៉ៅ,11.2983531,104.7923953,zoo,way,91562454
Phnom Tamao Wildlife Sanctuary Park,11.2983532,104.792395,park,relation,6646477
Bridge view,11.2774278,105.2822282,viewpoint,node,3266348267
Thmea Village Bridge,11.0899824,104.8125687,attraction,node,3626842664
Tnaot Te Terrace Bridge,11.0652517,104.8042261,attraction,node,3626846896
Preah Noreai-Naraya Statue,11.4922656,104.9436435,monument,node,3702822543
Wat Indochina,11.4766076,104.8433983,museum,node,4309441992
សួនច្បារ អ្នកលឿង,11.2604385,105.294447,monument,node,4452375909
ផ្ទះតាហួត,11.2398586,104.9049975,castle,node,5195467726
ផ្ទះបងផល្លា,11.4190303,105.2478675,attraction,node,6408261686
កោះចម្រើន,11.284062,105.269879,viewpoint,node,7340307886
សួនបុរីពិភពផ្លូវជាតិលេខ៣,11.4909901,104.8101141,park,node,13081328661
PPC 60M,11.4736593,104.8929797,attraction,node,13083954134
Coffee Berry,11.4746917,104.892117,attraction,node,13083954139
យានដ្ឋាន សេង វិសិត,11.4738749,104.8917252,attraction,node,13083954140
លាភ ហេង លក់គ្រឿងសំណង់,11.4655192,104.8899656,attraction,node,13083954143
Bodia Cambodian Apothecary,11.4590918,104.8921388,attraction,node,13083954151
Panha Farm (Lobster Farm),11.3170408,104.9120772,park,node,13088925708
ផ្ទះតាគង់ យាយសួនតាំងឬស្សី,11.3280063,104.8805442,park,node,13088925725
ផ្ទះ​បុរាណ,11.3625032,104.9387238,attraction,node,13140721107
Choeung Ek Skull Stupa,11.4844059,104.9020055,yes,way,170080205
មជ្ឈមណ្ឌល ប្រល័យពូជសាសន៍ ជើងឯក,11.4842118,104.90225,attraction,way,182972997
Synny Water Park,11.4495194,104.9131017,theme_park,way,308546798
Cheung Ek archeological earthwork (Ancient kiln site),11.4767565,104.9085895,archaeological_site,way,1146736995
Borey Phnom Penh Sok San (The Sok San Town),11.499187,104.8757834,attraction,way,1423468964
Stupa of Prey Veng Province,11.4830251,105.3251351,monument,node,4100963589
Babaong,11.3778908,105.3287604,attraction,node,4104435190
Khsach Sar Lake,11.3726855,105.3598818,attraction,node,4104439991
Boeng Preah,11.3274506,105.4484354,attraction,node,4104440297
Sdau Kaong,11.2234544,105.4610578,attraction,node,4104459791
Svay Angk,11.1813086,105.6439637,attraction,node,4104476793
Kor Andoek,11.1526259,105.5425556,attraction,node,4104489289
រង្វង់​មូល​បេនឡាន​ ផ្សារ​វាលយន្ត,11.0823225,105.7968983,monument,node,4791760033
កែងស្នេហ៍ (រង្វង់មួល),11.4128733,105.3460924,monument,node,5717946399
ដីថុយ,11.3007921,105.4252455,viewpoint,node,8195833117
សំអុល សោភា,11.3936843,105.3690377,viewpoint,node,8197805222
កំពង់ស្នេហ៍ (ស្ពាន),11.3790131,105.3848373,viewpoint,node,8197806620
ធារី (ហាងកាហ្វេ),11.2337769,105.4675749,viewpoint,node,8200247251
អង្ក្រង (ភូមិ),11.0173972,105.5278366,viewpoint,node,8210192717
ជើងភ្នំ (ឃុំ),11.2454459,105.3674227,viewpoint,node,8211293217
ស្វាយសាមសិប (ភូមិ),11.2414394,105.3621063,viewpoint,node,8211297217
បឹងប្រស្រែ (ភូមិ),11.2173106,105.4169479,viewpoint,node,8211323217
ឈើកាច់ (ផ្សា),11.2592887,105.4005013,viewpoint,node,8211333721
ស្ដៅកោង (ឃុំ),11.2031569,105.4521608,viewpoint,node,8214415517
ក្រហមក (ភូមិ),11.3022827,105.7333231,viewpoint,node,8234065417
បារាយណ៍លិច,11.4662717,105.3389166,viewpoint,node,10985413205
បារាយណ៍កើត,11.4700283,105.3480875,viewpoint,node,10985413405
សារមន្ទីរខេត្តព្រៃវែង,11.4828879,105.325462,museum,way,1158882456
រង្វង់​មូល​ ស្រះ​វង់​,11.0832728,105.8020637,monument,node,2079531597
Prince Siddhartha Guatama Riding a Horse,11.3040112,106.1305602,attraction,node,3431148154
Gate 07,11.2952165,106.1340754,attraction,node,3690166359
Tháp Chót Mạt,11.4638169,106.0102496,museum,node,5140991321
Gate 04 - Caodaism Holy Land,11.2979353,106.1279876,attraction,node,5427886829
Cửa Chánh Môn,11.3038911,106.1294985,attraction,node,5575773758
Đài Liệt sĩ,11.3368403,106.1113831,monument,node,6221020242
Phướn Toà Thánh,11.3039807,106.1324159,attraction,node,6232956185
Nine celestial planes,11.3040222,106.1314412,attraction,node,6237731397
Tượng đài Dũng sĩ Núi Bà Đen,11.363675,106.1774869,artwork,node,6239153123
VƯỜN CHÔM CHÔM THÁI Vân Dũng,11.2479875,106.1957248,park,node,6958985795
Stupa of Pope - Le Van Trung,11.3039754,106.1340778,monument,node,10718504505
Great Divine Temple,11.3039347,106.1330652,attraction,node,10743134758
Stupa of Defender of Dharma - Pham Cong Tac,11.3040093,106.1301715,yes,node,10750215115
Gratitude Retribution Temple - Temple of the Holy Buddha Mother,11.3000484,106.1331912,attraction,node,10796591857
Bá Huê Viên,11.3002939,106.1339431,attraction,node,10796642593
Đầu Sư Đường,11.2992677,106.1340315,attraction,node,10796648604
The office of Defender of Dharma,11.3005062,106.132951,attraction,node,10820819105
Enlightenment Bodhi,11.3040009,106.1321518,attraction,node,10830817805
Long Hoa Thị,11.2830625,106.1298125,attraction,node,10833873535
Công viên Trần Quốc Đại,11.0897376,106.2639812,park,way,334515083
Công viên Xuân Hồng,11.3239244,106.103134,park,way,336022282
Công viên Hòa Thành,11.2870153,106.1301729,park,way,336030481
Công viên 30 tháng 4,11.3127227,106.0978516,park,way,336053457
Công viên Thắng Lợi,11.3157434,106.093978,park,way,336053458
Công viên Thắng Lợi,11.3151179,106.0944928,park,way,336053459
Tháp Bình Thạnh,11.0186438,106.2191932,attraction,way,337703872
Bửu tháp Bảo Pháp Chơn Quân,11.2930611,106.1150818,monument,way,381143561
Bửu tháp Bảo Đạo Chơn Quân,11.2939934,106.1141779,monument,way,381143562
Bửu tháp Khai Pháp Chơn Quân,11.2947149,106.1134997,monument,way,381143563
Bửu tháp Khai Đạo Chơn Quân,11.2951045,106.1127568,monument,way,381143715
Lê Phủ Từ - Bửu tháp Bảo Thế Chơn Quân,11.2947596,106.1108687,monument,way,381143716
Bửu tháp Tiếp Pháp Chơn Quân,11.2949703,106.1102481,monument,way,381143980
Di tích Khám đường Tây Ninh,11.313208,106.0957954,museum,way,664557312
Nhà Đốc phủ sứ Nguyễn Văn Kiên,11.3174559,106.092143,museum,way,664573950
Phòng Xem phim Tư liệu,11.3667776,106.1782944,museum,way,666404226
Di tích lịch sử căn cứ dương minh châu,11.3627927,106.2720056,monument,way,666455934
Công viên Dương Minh Châu,11.3863125,106.2319055,park,way,666456055
Công viên,11.3806579,106.2245487,park,way,992642704
Khu du lịch Núi Bà Đen,11.3825596,106.1723549,theme_park,way,1162904824
Gratitude Retribution Temple - Temple of the Holy Buddha Mother Area,11.2998098,106.1325648,attraction,way,1164606537
The office of Defender of Dharma Area,11.3003504,106.132548,attraction,way,1165380353
The Holy See of Great Faith Third Universal Redemption Area,11.3039949,106.1335638,attraction,way,1169561166
Công viên Mặt Trời,11.0832797,106.1809783,park,relation,2673356
Khu Du Lịch Đại Nam,11.0432629,106.6347994,attraction,node,2296759171
Địa Đạo Bến Dược,11.1432528,106.4632107,museum,node,4171787601
Cu Chi Wildlife Rescue Station,11.0927233,106.5137054,attraction,node,4171823889
Dai Nam Zoo,11.0488817,106.6249326,attraction,node,4223828694
Wildlife at Risk,11.0913435,106.5134968,attraction,node,4314656617
Lang tre Phu An,11.0660639,106.5849136,attraction,node,4314660031
khu chế xuất Linh Trung 3,11.0139448,106.3943446,viewpoint,node,4432134392
Video show place,11.1436058,106.4642569,attraction,node,4695553190
nha may tin hoa sen . ben cát binh duong,11.1005129,106.6252455,museum,node,5059962424
yamaha town thủy tuyen phát,11.0971429,106.6260303,museum,node,5059984021
Công Ty CJ FRESHWAY VIỆT NAM,11.130074,106.6954497,museum,node,5355918921
Trại giam An Phước,11.4292443,106.7668541,museum,node,5477035322
Liberation village,11.1399294,106.4622617,attraction,node,5922616130
B52 crater,11.1441834,106.463411,attraction,node,5922616522
Bamboo trap,11.1440617,106.4633916,attraction,node,5922616523
Soldiers,11.1427597,106.4642921,attraction,node,5922616526
Ammunition and soldiers,11.1431295,106.4639622,attraction,node,5922616527
US vehicles graveyard,11.1424216,106.4625406,attraction,node,5922616531
Guns gallery,11.1430005,106.4628652,attraction,node,5922616532
Ammunition gallery,11.1432663,106.462782,attraction,node,5922616533
Video show place,11.143915,106.4642465,attraction,node,5922616535
Video show place,11.1426571,106.4642613,attraction,node,5922616536
Kim Oanh Plaza,11.0419023,106.6746876,playground,node,6941243412
Exit,11.145472,106.4617601,museum,node,7031307885
Cống đập Phước Hòa,11.4213222,106.7202466,viewpoint,node,7864026785
Địa Đạo Bến Đình Củ Chi,11.0415424,106.5498182,attraction,node,9726397683
Địa Đạo Bến Đình Củ Chi,11.0451888,106.5483108,attraction,node,9726397684
Ngọn Hải Đăng hồ Dầu Tiếng,11.3237179,106.3474233,attraction,node,11533140869
leo rừng,11.1452749,106.4615972,attraction,node,12326914066
Đại Nam Văn Hiến,11.0423273,106.6291121,theme_park,way,147614676
Địa đạo Bến Đình,11.0605595,106.527527,battlefield,way,207074801
Công viên Thành phố mới Bình Dương,11.0531556,106.6776437,park,way,306214079
Công viên phường Uyên Hưng,11.0575455,106.7946372,park,way,323059492
Công viên Tượng đài Phú Giáo,11.2932537,106.7969719,park,way,407427149
Công viên Dầu Tiếng,11.2795408,106.3624859,park,way,534060477
Công viên KDC Hiệp Thành 3,11.0039061,106.6676679,park,way,653733528
Công viên Chơn Thành,11.4278304,106.6340967,park,way,796474958
Công viên mini Khu phố 6,11.4159324,106.6211864,park,way,799119118
Công viên Tổ Đình,11.4143747,106.614031,park,way,799120128
Công viên Tịnh Quang,11.411359,106.6119684,park,way,799120658
Công viên mini khu phố 1,11.4170188,106.6182244,park,way,800425961
Công Viên VMT,11.4099289,106.6149585,park,way,813563184
Địa đạo Tam Giác Sắt,11.0902614,106.5403315,park,way,823872338
Địa đạo Bến Dược,11.1432416,106.4620607,park,way,973258391
Quảng trường trung tâm Thị xã Trảng Bàng,11.029917,106.3584762,park,way,1168222900
Tượng đài Chiến thắng Bàu Bàng,11.2732226,106.6356172,park,way,1252174959
Tàu Lộn Vòng Siêu Tốc,11.0433035,106.6325423,attraction,way,1252772822
Di tích Lịch sử Chiến khu Long Nguyên,11.2742819,106.5090421,park,way,1373562349
Nhà Tưởng niệm,11.4484941,106.8721388,monument,way,657897369
Công viên huyện Vĩnh Cửu,11.0955873,107.0398397,park,way,979806169
Đài Tưởng niệm Anh hùng Liệt sĩ huyện Bắc Tân Uyên,11.115853,106.8410693,park,way,1104047677
Khu cổ mộ Đức ông Trần Thượng Xuyên,11.0552414,106.8351256,monument,way,1244777179
nha 38,11.3082637,107.5072919,museum,node,4843739738
Bàu Sấu Nam Cát Tiên,11.4588741,107.3454316,attraction,node,5043949621
Bàu Sấu,11.4591271,107.3453414,attraction,node,5072875722
Đá Ba Chồng,11.190788,107.3484014,attraction,node,9974267816
Cây Tung Cô Thụ,11.4506693,107.3644575,attraction,node,10729928005
Tổ quốc Ghi công,11.185838,107.5590115,monument,node,11670719092
Ben Cu,11.4344393,107.4295182,viewpoint,node,12613087809
Khu du lịch Ma Đa Guôi,11.4233075,107.578007,attraction,way,407601487
Khu du lịch Suối Mơ,11.229137,107.443032,park,way,1195398460
Công viên Trần Hưng Đạo,11.1861282,107.5634281,park,way,1330850745
Đài Tưởng niệm Liệt sĩ Huyện Đạ Huoai,11.4973998,107.4895446,monument,way,1385735633
View Tower,11.967444,102.3167784,monument,node,974334429
น้ำตกคลองเจ้า,11.6466198,102.5562447,attraction,node,1200790417
Sunset Viewpoint,11.904221,102.3981045,viewpoint,node,2234859383
Huang Num Keaw Waterfall,11.6548788,102.5811674,attraction,node,2742029824
Forest road,11.6651327,102.5619918,viewpoint,node,4145913695
Rasta View Point,11.9751626,102.3175802,viewpoint,node,4428565096
Khao Rearub,11.6297435,102.5584438,attraction,node,4633790191
Makayuk,11.6598129,102.571573,attraction,node,4867680921
Khlong Chao Waterfall,11.646463,102.5561888,attraction,node,5485733914
Huang Num Keaw Waterfall,11.6556387,102.5809159,attraction,node,5495719701
Sunset viewpoint,11.62918,102.5449499,viewpoint,node,5498630975
private island with entry fee. 200THB,11.8353846,102.4600776,attraction,node,5520573430
หิน,11.9608498,102.3791928,monument,node,5537050421
หินกองแหลมโปง,11.9607743,102.3784479,monument,node,5537071722
Fishermen village,11.9961378,102.3699178,attraction,node,5587770831
Emptiness,11.8263151,102.511536,viewpoint,node,5592417121
Sunset Viewpoint,11.6310728,102.5454461,viewpoint,node,6479951590
Pier at Cinnamon Art Resort and Spa,11.8287477,102.5025032,viewpoint,node,6479959886
Koh Laun - Scuba Diving,11.7843951,102.3944143,attraction,node,7097921854
Good snorkeling,11.9039533,102.4128703,attraction,node,7132586486
Good snorkeling,11.9034883,102.4135888,attraction,node,7132586586
Koh Kham,11.8343784,102.4600674,attraction,node,7407702706
Hin Rap South - Scuba Diving,11.9057091,102.3171774,attraction,node,10688651317
Ko Thian - Scuba Diving,11.8057483,102.378362,attraction,node,11265804078
Hornbill Re-introduction and Koh Kood local community-based Conservation project,11.6573825,102.5822559,zoo,node,11626331644
Picasjo,11.985752,102.3730436,garden,way,293528347
The Galaxy,11.976308,102.3332068,attraction,way,340536989
Thai Red Cross Association’s Khao Lan Center,11.9779061,102.7767673,museum,way,758843254
Secret Beach,11.6865022,102.5289593,attraction,way,763728667
Monument for the Dead,11.6211842,102.9903148,attraction,node,1451387837
Tatai Waterfall,11.5870025,103.0971605,yes,node,1452782023
View Tower,11.558287,102.9919007,viewpoint,node,1650396870
ส่วนที่แคบที่สุดในไทย,11.7198939,102.9073279,attraction,node,4557947489
Ship,11.6160282,102.9792644,attraction,node,6252541229
Peam Krasop Mangroves Trail,11.5608146,102.9932254,attraction,way,364595285
តំបន់អារ៉ែង,11.6288814,103.5301265,park,node,740548102
ឆាយតាហ៊ីង,11.6303627,103.5311347,attraction,node,3563874418
Chhay Thmor Bang Rapid,11.6595787,103.4021888,attraction,node,3564924202
ម្រិចកង្កែប,11.6837217,103.5626632,viewpoint,node,6332671886
ខ្នងក្រពេី,11.701651,103.7809998,attraction,node,6476802385
ឱរ៉ាល់រីសត-កំពង់ស្ពឺ,11.7432791,104.1296576,attraction,node,6371804994
ច្រកចូលឱរ៉ាល់រីសត,11.7433237,104.12712,attraction,node,6371805086
ច្រកចូលដីលក់ដំបងវិញ ឱរ៉ាល់,11.7475226,104.1250442,attraction,node,6371821286
ដីលក់ដំបងវិញ ឱរ៉ាល់,11.7488794,104.1291053,attraction,node,6371822885
Tei Teuk Pous (Hot Spring),11.723865,104.0552969,attraction,way,252446499
ទំនប់ខ្ដុល,11.8041947,104.5214107,attraction,node,6440119286
Pagoda,11.9206368,104.6125955,viewpoint,node,8588820006
Cow Statue,11.8297195,104.7343393,monument,node,10833040653
Touleap Train Return Point,11.5634262,104.7908483,attraction,node,11448950583
(ចេតិយ),11.5458134,104.7833055,monument,way,538065958
Small KP area for kids to run,11.5535056,104.7950488,park,way,619925397
ឆាយ រីវណ្ណ គង្គា អម្រិត រីស៊ត,11.6766639,104.7906103,attraction,way,797046491
Longvek,11.8650887,104.7576091,archaeological_site,way,904082303
Borey New World Playground,11.5114867,104.7742482,playground,way,1158626504
ហង្សមាស,11.561121,104.9325143,monument,node,1154261898
Por Prok Khang Cheoung Community (DK06),11.5664549,104.8587039,park,node,2077151494
រូបសំណាក សម្ដេច ជួនណាត,11.5566101,104.9352149,monument,node,3788513064
ព្រះសក្យមុនីចេតិយ,11.5726617,104.9176004,monument,node,3788551869
Prohm Bayon Statue,11.5894133,104.9270946,monument,node,3793154050
Ganesha Statue,11.5713042,104.9179805,monument,node,3800705415
រង្វង់មូលផ្សារដើមថ្កូវ,11.5324299,104.9142773,monument,node,3929879816
Phumi Svay At view,11.7452901,104.9917988,viewpoint,node,4100992790
Jaby Kids Center,11.5494513,104.8670129,playground,node,4433602192
អតីតរោងភាពយន្តលុច្ស,11.5679207,104.9251213,attraction,node,4574521177
អតីតរោងភាពយន្តសូរីយា,11.5678682,104.9201449,attraction,node,4574521185
អតីតរោងភាពយន្ត ព្រហ្មបាយ័ន,11.567805,104.9260514,attraction,node,4574522290
អតីតរោងភាពយន្តវិមានទិព្,11.5589122,104.9203418,attraction,node,4574522296
អតីតរោងភាពយន្ត បូក គោ,11.5443688,104.9213621,attraction,node,4574522299
អតីតរោងភាពយន្តគិរីរម្យ,11.5554079,104.9163256,attraction,node,4574522303
Cambo Kotop LTD,11.5492251,104.8260415,park,node,4770871062
សួន​ចំការ​ព្រីង,11.5843667,104.8560291,attraction,node,4833854122
Coloso KTV,11.5490883,104.9197374,attraction,node,5031436422
ផ្ទះទេព រមា,11.5794799,104.8598726,attraction,node,5167991824
Urban Space,11.5797567,104.9007065,playground,node,6019622312
Military Museum,11.6776959,104.8853479,museum,node,6440325381
Sosoro,11.5743548,104.9254421,museum,node,6709334354
Two Deers,11.5705971,104.9108742,monument,node,7223802718
ស៊ុក សុភ័ស្ត្រ . សម្រស់ធម្មជាតិ,11.5118505,104.8806112,park,node,8323472916
Van Molyvann house,11.544213,104.9135261,monument,node,8382887678
ស្តូប​ជនរងគ្រោះ​ដោយ​ការ​គប់​គ្រាប់បែក​ដៃ​ឆ្នាំ​១៩៩៧,11.5614776,104.9324163,monument,node,8746252839
Ny Art,11.5546522,104.9272695,gallery,node,9785099747
STP Cambodia,11.5508924,104.9307032,gallery,node,10720244786
Chhan Dina Gallery,11.5665893,104.9293854,gallery,node,10734065631
Sa Sa Art Projects,11.5487817,104.9203077,gallery,node,10744458338
The Gallerist,11.5604593,104.9292808,gallery,node,10754848352
Khmer Kite Museum,11.5531657,104.9348119,museum,node,11012377742
Touleap Scenic Train,11.5724294,104.9162704,attraction,node,11448932637
Local food street,11.5621126,104.9161479,attraction,node,11448957671
Railway Street,11.5721099,104.9036568,attraction,node,11448958475
Flying dogs tree,11.5766489,104.9243946,attraction,node,11475908622
Bridge view,11.5486269,104.9439381,viewpoint,node,11500596263
Snow World,11.5761435,104.9073715,theme_park,node,12113869572
Wonderland,11.5761538,104.9076934,theme_park,node,12113884151
Langka Lane,11.5543168,104.9265215,attraction,node,12149307901
អតីតរោងភាពយន្តកាពីតូល,11.568394,104.9262858,attraction,node,13051134396
អតីតរោងភាពយន្តហែមជាតិ,11.5711817,104.9263473,attraction,node,13051143677
អតីតរោងភាពយន្តភ្នំពេជ្រ,11.5700907,104.9181869,attraction,node,13051146520
ផ្សារ​រាត្រី,11.5740501,104.9272481,attraction,way,62219866
Sanderson Park,11.5770666,104.922053,park,way,124823279
សួនកាណាឌីយ៉ា,11.5720124,104.9209281,park,way,171309650
ព្រះទីនាំងច័ន្ទឆាយា,11.5648552,104.9314255,attraction,way,172268264
ព្រះទីនាំងទេវាវិនិច្ឆ័យមហ័យមហាប្រាសាទ,11.5636284,104.9308085,monument,way,172268276
សួន​កុមារ ​ពោធិចិនតុង,11.5626432,104.85495,park,way,172550710
សារមន្ទីរ​ឧក្រិដ្ឋកម្មប្រល័យ​ពូជសាសន៍​ទួលស្លែង,11.5494352,104.9176056,museum,way,173272044
វត្ដភ្នំ,11.5761319,104.9232072,attraction,way,175005909
Belfry,11.5624813,104.9311507,monument,way,222188497
Kantha Bopha Memorial,11.5620452,104.9317567,monument,way,222188498
Phnom Mondop,11.5622051,104.9320031,monument,way,222188499
Two Lions Park,11.566253,104.8896419,park,way,238684134
Garden in front of library,11.5109817,104.899726,garden,way,242897627
Garden in front of library,11.5113841,104.8999849,garden,way,242897628
Garden next to dormitory,11.5096486,104.8991261,park,way,242897629
Garden of research center,11.5109923,104.8996155,garden,way,242897630
Vegetable Garden,11.5142004,104.9029629,garden,way,242897651
Vegetable Garden,11.5141237,104.9025444,garden,way,242897652
Vegetable Garden,11.5144035,104.9029015,garden,way,242897653
Treellion Park,11.5506079,104.9434056,park,way,265194662
មជ្ឈមណ្ឌលសិល្បៈ និងសិប្បកម្មវត្តភ្នំ,11.5764336,104.9228231,museum,way,269798572
Sen Monorom Park,11.5712748,104.9179144,park,way,280436846
Cambodia-Vietnam Friendship Monument,11.5587028,104.9327718,attraction,way,311065474
វិមានឯករាជ្យ,11.5564378,104.9281893,attraction,way,311065501
សួន​ចំការព្រីង,11.584626,104.8551427,theme_park,way,347008127
The Giant Clock of Phnom Penh,11.5756133,104.9231393,attraction,way,367144297
សួនសម្តេច តេជោ ហ៊ុន សែន,11.5566539,104.936669,park,way,375396566
កោះពេជ្យ,11.5509446,104.9410147,park,way,375412517
Kids fun park,11.5566694,104.9428846,theme_park,way,376149056
សួននាគព័ន្ធទឹក,11.5565712,104.930842,park,way,376345800
សារមន្ទីរ​ជាតិ,11.5654949,104.9292787,museum,way,446075047
Silk Island Garden,11.6400682,104.9382746,attraction,way,454317471
Arc de Triomphe,11.544755,104.9403308,attraction,way,478547486
Phnom Penh Safari,11.7012415,104.8716631,zoo,way,594151269
Water Garden,11.6021469,104.8854997,theme_park,way,600332424
Royal Palace Park,11.5649721,104.9323305,park,way,615419839
The Star Platinum Herminus Garden,11.5255477,104.9566046,garden,way,625316352
The Star Platinum Mercurean Garden,11.5253587,104.9541233,garden,way,625316756
Angkor Phnom Penh City Park,11.6104532,104.8846595,park,way,629651013
Borey Angkor Park,11.6097938,104.8831511,park,way,629651062
The Star Platinum Garden,11.5312508,104.9568714,garden,way,669085886
The Star Platinum Athina Garden,11.5289781,104.954507,garden,way,669086661
The Star Platinum Mercurean 2 Garden,11.5210103,104.9538558,garden,way,669086889
Phnom Penh Fantasy World,11.5952469,104.9268843,theme_park,way,672488576
Prince Manor Funpark,11.5075615,105.0906793,theme_park,way,686536240
Kids fun park,11.5927571,104.9252711,theme_park,way,751894336
Kids fun park,11.5995319,104.9260073,theme_park,way,752196965
Kids fun park,11.5899302,104.9252958,theme_park,way,752196966
La Seine Clock Tower,11.5503748,104.9390406,attraction,way,764330236
Jet's Garden Park,11.6472742,105.0244872,park,way,823108724
Dinosaurs Alive,11.5944836,104.9270886,theme_park,way,828435716
Coconut Park,11.5486871,104.9432213,park,way,840386517
ខេមរិន្រ្ត,11.563873,104.929817,castle,way,905238235
Sydney Opera,11.5168567,104.9565185,attraction,way,958713298
Lighthouse,11.5161107,104.9554232,attraction,way,958714564
Windmill,11.5163426,104.954606,attraction,way,958714848
Elizabeth Tower,11.5165438,104.9560436,attraction,way,958715568
Eiffel Tower,11.5165196,104.9549564,attraction,way,958716734
Waterwheel,11.5171166,104.9541248,attraction,way,958722908
Watch- Belltower,11.5165738,104.956554,attraction,way,958725596
Maze Garden,11.5170302,104.9564213,garden,way,972080402
Techo Peace Park,11.6776541,104.885142,park,way,993549490
វិមានឈ្នះឈ្នះ,11.6786457,104.8852582,monument,way,993552707
space four zero & wang dang doodle,11.5604013,104.930313,gallery,way,997312755
សួនច្បារ លោកតា​ក្រុម​ង៉ុយ,11.5593877,104.9347747,park,way,1037024282
Green Lake Park,11.5911478,104.8624886,park,way,1098969788
The Sleuk Rith Contemporary Art Gallery,11.5587214,104.9284477,gallery,way,1117088826
The Star Platinum Paradigm Garden,11.5207653,104.9559905,garden,way,1123282461
សួនអឺរ៉ុប,11.5168107,104.9555093,park,way,1123779227
Norea Garden,11.5419194,104.9433178,attraction,way,1124088487
Vattanac Capital Lifestyle Park,11.5729102,104.9195812,park,way,1127915826
The Elysée Park,11.5434384,104.9372951,park,way,1157732528
The Natural Park,11.7002138,104.9232366,park,way,1187204816
The Natural Park,11.7016191,104.9203572,park,way,1187204817
Sunshine Family Park,11.5757993,104.9085952,theme_park,way,1237034809
Kids fun park,11.5445606,104.9613624,theme_park,way,1301201646
ព្រះបរមរាជវាំង​នៃរាជាណាចក្រ​កម្ពុជា,11.5634791,104.9304992,attraction,way,1315431760
Coconut Park (Koh Norea),11.5468677,104.9569522,park,way,1334956141
សួនវត្ដភ្នំ,11.5760959,104.9230878,park,relation,7166688
Garden City Water Park,11.6952771,104.875749,water_park,relation,11555280
Kids zone,11.6948396,104.8756419,water_park,relation,11580940
មានឈ្នះឈ្នះ,11.6786457,104.8852582,monument,relation,13337206
The Star Platinum Rosato Garden,11.5204383,104.9583143,garden,relation,18444058
Chor Chork,11.5463271,105.4012395,attraction,node,4107003590
ជួរផ្អៅ,11.5176498,105.5509475,viewpoint,node,8096077119
ព្រែកតាដុក,11.5959598,105.6095002,viewpoint,node,8214590318
វាលស្មាច់ (ភូមិ),11.60145,105.7536005,viewpoint,node,8221643318
ពោធិ៍ (ភូមិ),11.6136859,105.7484636,viewpoint,node,8221649117
ត្បូងវត្ត (ភូមិ),11.6224086,105.761887,viewpoint,node,8221650217
កន្លែងជ្រៅ (ភូមិ),11.6446513,105.7624724,viewpoint,node,8221692317
អណ្ដូងស្អាត (ភូមិ),11.6257585,105.7357004,viewpoint,node,8221697218
ក្របៅជួរ (ភូមិ),11.6295203,105.7433542,viewpoint,node,8221702117
ព្រៃត្រេស (ភូមិ),11.6398501,105.7429084,viewpoint,node,8221703717
អញ្ចាញ (ភូមិ),11.6489484,105.7341061,viewpoint,node,8221706217
ពពេល (វត្ត),11.65135,105.7315723,viewpoint,node,8221708217
តាអី (ភូមិ),11.6745498,105.7336138,viewpoint,node,8221710117
ចុងបឹង (ភូមិ),11.6460777,105.460622,viewpoint,node,8221714717
បាយ៉ាប (សួនសត្វ),11.6523799,105.4834371,viewpoint,node,8221717317
ទួលសុភី (ភូមិ),11.6483232,105.5247466,viewpoint,node,8221719117
ស្មោងខាងជើង (ភូមិ),11.5596176,105.6383585,viewpoint,node,8221719118
បើកទូក (ភូមិ),11.530804,105.591457,viewpoint,node,8221741519
គោកសុក្រំ (ភូមិ),11.5152607,105.595451,viewpoint,node,8221754117
គោកព្រាល (ភូមិ),11.5009203,105.5922047,viewpoint,node,8221754118
ត្រពាំងស្គម (ភូមិ),11.5269954,105.6604303,viewpoint,node,8223357718
ត្របែក (ឃុំ),11.6172247,105.5520678,viewpoint,node,8223363917
Banteay Prei Nokor,11.7963432,105.7431882,archaeological_site,way,250650216
French Colonial Watchtower,11.9856012,105.4754535,attraction,way,445943676
ស្ពានឫស្សីកោះប៉ែន,11.9734973,105.4618009,attraction,way,676323971
Bayab Zoo,11.6522383,105.4828859,zoo,way,724886442
Tonlé Ôm,12.0011101,105.4487696,archaeological_site,way,1082896150
Independence Monument,11.9991346,105.4515062,monument,way,1210461532
Căn cứ Trung ương Cục miền Nam,11.7329945,106.0767654,monument,node,2905672920
រូបចំលាក់ស្តេចកន,11.7716957,105.9288308,monument,node,5265770722
Chiến thắng Junction City,11.5542214,106.1612575,monument,node,6430972695
ឫស្សីជួរ (ភូមិ),11.764217,105.8058409,viewpoint,node,8210240817
Công viên Tân Biên,11.5430149,106.011166,park,way,307748437
Nhà bia Liệt sĩ xã Tân Đông,11.6680547,106.2189176,park,way,666658987
Chiến thắng Thuận Phú,11.5929612,106.8894504,monument,node,6167984496
Tượng đài Chiến thắng,11.5373174,106.896076,monument,way,308426622
Công viên Phước Long,11.8424724,106.9957531,park,way,689473020
Dinh tỉnh trưởng,11.8583101,106.9988989,attraction,way,689473041
Quảng trường 6 tháng 1,11.8231293,106.9623307,park,way,689652500
Di tích Chi bộ Phú Riềng Đỏ 1930,11.5691387,106.8744033,park,way,1198519190
Đài tưởng niệm Cát Tiên,11.5682751,107.3688584,monument,way,1202801991
Quảng trường Phạm Văn Đồng,11.5668926,107.3688881,park,way,1202801992
Công viên Quảng trường Đạ Tẻh,11.5060687,107.4828052,park,way,1248090394
Mushroom,12.3828292,102.372898,viewpoint,node,2101006213
Ko Chang Naval Memorial,12.1787299,102.3889573,museum,node,2510102809
นำตกธารมะยม,12.0763008,102.3673375,attraction,node,3837011082
บ้านช้างไทย,12.0534024,102.3000321,zoo,node,4748267328
Каучуковая плантация,12.2232221,102.3657626,attraction,node,4928852421
Cautchu production forest,12.246627,102.4979825,attraction,node,5476982422
วัดบุปผาราม,12.2502334,102.4943031,attraction,node,5551876221
วัดไทรทอง,12.2010058,102.4784188,attraction,node,5551958525
ตลาดริมน้ำวัดไทรทอง,12.201423,102.4787627,attraction,node,5552017821
ชุมชนบ้านท่าจะแนะ,12.1816784,102.5581064,attraction,node,5553714123
ศาลเจ้าพ่อน้ำเชี่ยว,12.1913159,102.4623434,attraction,node,5554204421
RSC เขาวงเวียน,12.1966723,102.3000688,attraction,node,9867339359
นำตกธารมะยม,12.0798006,102.3672055,attraction,node,11260970690
Rock Of Monkey,12.0481943,102.3263593,attraction,node,11261808725
สวนรุขกชาติจังหวัดตราด,12.2529889,102.5166542,park,node,11690487049
Ban Chamrak Battle Viewpoint,12.2250923,102.7041703,viewpoint,node,12570613315
บ้านสวนชาระโภค1 จ.ตราด,12.3741841,102.561183,garden,node,12609128149
Mangrove discovery way,12.0223837,102.3892723,attraction,way,27954724
Mangrove discovery way,12.0225163,102.3889557,attraction,way,231417583
Trat Museum Trat Province,12.2423054,102.5154545,museum,way,232900212
view tower,12.0227568,102.3902917,viewpoint,way,454917755
ประภาคารแหลมงอบ,12.1700154,102.3923416,attraction,way,1128091355
រង្វង់មូលដំរី៥០៥,12.3052102,103.101813,monument,node,3627470168
L'Bak nKamronh rapids,12.3003541,103.5713405,attraction,node,681284746
អូរដា,12.1665415,103.703214,attraction,node,13321310974
ទឹកធ្លាក់ច្រកល្អៀង,12.1742355,104.1720571,attraction,way,558478100
Pottery factories,12.246057,104.6315047,attraction,node,678826997
Pottery factory,12.2526027,104.6344216,attraction,node,1060217951
វិមានឯករាជ្យ,12.2509578,104.6684273,monument,node,1524484407
ទួលអំពិល-កំពង់ឆ្នាំង,12.2359235,104.6905709,attraction,node,4692025390
Pottery factory,12.2495411,104.6341518,attraction,node,4962957134
Water Tower,12.2414674,104.5828579,attraction,node,4982789530
Water Tower,12.2420335,104.5826696,attraction,node,4983461923
Water Tower,12.2431239,104.5822351,attraction,node,4983461926
Water Tower,12.2426204,104.5826106,attraction,node,4983461942
Khmer Rouge Prison Cave,12.2525784,104.5977656,attraction,node,5598946267
រង្វង់មូលទូក,12.2754285,104.659396,monument,node,6338896880
អូរព្រែកសំបួរ,12.1243378,104.4720059,attraction,node,6427475785
កណ្ដាល (ភូមិ),12.266286,104.6836438,viewpoint,node,8211275817
សារមន្ទីរ ខេត្តកំពង់ឆ្នាំង,12.2544667,104.666765,museum,way,1158752932
Teuk Chha Resort,12.18952,105.1933681,attraction,way,240746749
6 Makara Stung Chinith Resort,12.4908137,105.1471462,attraction,way,241202802
Bronze Lake Park,12.4943735,105.0985628,theme_park,way,315106604
Neirmevoirne,12.376068,105.6000629,water_park,node,4189965089
ឆឹងកក ភូមិអេកូ,12.0176289,105.4077709,attraction,node,4723490789
ប្រាសាទគុកព្រះធាតុ,12.1653595,105.529359,archaeological_site,node,8169952222
ស្តូបអនុស្សាវរីយ៍​ ២​ ធ្នូ,12.0613524,106.4430262,monument,node,5561465200
Sen Monorom Waterfall,12.4420242,107.1596387,attraction,node,2601243364
Hill Top Viewpoint,12.4799907,107.1745659,viewpoint,node,2627876367
រង្វង់មូលគោព្រៃ,12.4601884,107.1857628,monument,node,4493451191
Chrey Thom Waterfall,12.4098184,107.3128272,attraction,node,2627891056
