name,lat,lon,type,osm_type,osm_id
Taman Kota,0.8642031,99.5630839,park,way,241201333
Tugu Ratik Togak,0.894887,100.3110556,monument,node,5271236640
Taman Dataran Tinggi Pematang Baih,0.8937461,100.3109561,park,way,545434501
Taman Purna MTQ Kab. Rokan Hulu,0.8927988,100.310251,park,way,555638679
Hutan Kota Pasir Pengaraian,0.9006029,100.3067104,park,way,555638956
Taman Islamic Centre Rohul,0.8944648,100.3089839,park,way,557913353
Taman Kota Pasir Pengaraian,0.8649885,100.2954894,park,way,658035697
Taman Islamic Centre Rohul,0.8962246,100.3090425,park,way,742740729
Tugu Beradat,1.0803956,100.5376111,monument,node,12368968290
WaterPark Stafan,1.2787037,101.1744324,water_park,node,4561358363
Harationica Waterpark,1.27256,101.1612165,water_park,node,7002615969
Taman Kasuarina,1.2476838,101.2161263,park,way,200691746
kebun sawit,0.8733012,101.2427031,park,way,458530256
Taman Angsana,1.262896,101.1881868,park,way,893086738
Tugu Perbatasan,0.9171137,102.0323603,monument,node,3237879509
Tugu Perbatasan Siak - Bengkalis,1.1769143,102.1317716,monument,node,3242999261
Taman Sigaran Jiwa,0.9424033,102.0470671,park,way,1345113411
TK Adhiyaksa,1.0127061,102.7085867,playground,node,4198407477
Taman Cik Puan,1.0129338,102.7073193,park,way,419843826
Regent's Flower Garden,0.9887119,103.4370013,park,node,5978644643
KARIMUN VISUAL STUDIO,1.0097756,103.3915459,park,node,7680311291
PASAR MERAL KOTA,1.0107987,103.3925926,park,node,7680316987
Rumah Bugis (Memorial Daeng Haddadek Seri Saleiwangeng),1.3122305,103.4753014,attraction,way,1252295834
Taman Doa Maria Guadalupe,1.0467519,103.3804428,park,way,1441754445
Bonsai Garden,1.3382963,103.7300601,attraction,node,319830199
Dalhousie Obelisk,1.2874478,103.852223,monument,node,393739717
Sir Stamford Raffles Statue,1.2881329,103.8519231,monument,node,512071002
Esplanade,1.2898465,103.8551102,monument,node,512071256
Southernmost Point of Continental Asia,1.2480157,103.8213159,attraction,node,512090776
Sundial Garden,1.3095121,103.8163133,attraction,node,602090006
Hoya House,1.3099652,103.8162532,attraction,node,602090007
Ginger Garden,1.310897,103.8150737,attraction,node,602090009
Bandstand,1.3103872,103.8163537,attraction,node,602090012
Herbs and Spices,1.3203161,103.8156956,attraction,node,602165422
Delima Seafood Restaurant,1.0776664,103.9300801,monument,node,624941334
Batam Cable Ski,1.0802732,103.9378048,attraction,node,624950721
Statue (Music Tradisional) S.Harapan,1.10565,103.95558,monument,node,702339776
Carmichael Road Playground,1.3425915,103.8630059,monument,node,924815250
Scentopia,1.254664,103.8136526,museum,node,1110010020
The Bayshore playground,1.3134397,103.9398807,playground,node,1314006673
Police Heritage Centre,1.324405,103.8454916,museum,node,1541260942
Dialogue in the Dark Singapore,1.3341909,103.7771594,museum,node,1721892269
Long Bar,1.2951307,103.8534677,attraction,node,1766486405
Marsh Garden,1.306808,103.8170484,attraction,node,1844016094
Orchid Breeding and Micropropagation Lab,1.3085082,103.8181312,attraction,node,1844016097
Vanda Miss Joaquim,1.3106108,103.8160046,attraction,node,1844016099
Ancient Egypt,1.2536728,103.8228404,theme_park,node,1873233367
Far Far Away,1.254964,103.8236226,attraction,node,1873233368
Hollywood,1.2559302,103.8220744,attraction,node,1873233370
Madagascar,1.2554986,103.8228409,attraction,node,1873233371
New York,1.2545643,103.8212738,attraction,node,1873233373
Sci-Fi City,1.2536771,103.8219998,attraction,node,1873233374
Jurassic World,1.2539038,103.8238526,theme_park,node,1873233383
The Pinnacle@Duxton,1.2755813,103.8413189,viewpoint,node,1931861592
Dragon's Teeth Gate,1.2629688,103.8053462,attraction,node,1948666505
Singapore Maritime Gallery,1.2707176,103.8629867,museum,node,1985259385
Bedok Terrace Playground,1.3254512,103.947357,playground,node,1992588656
Twin Pagoda,1.3396977,103.7282517,monument,node,2005650593
Southern Ridges,1.2555712,103.8177397,viewpoint,node,2248167729
Machine Gun Post,1.2626929,103.8049811,attraction,node,2292008861
The Fourth Gun Position,1.2652209,103.8038744,attraction,node,2292011571
Gun Emplacement IV,1.2656483,103.8034502,attraction,node,2292012664
The Tunnel,1.2667462,103.8029917,attraction,node,2292014664
Block 109 Playground,1.3244262,103.9104338,playground,node,2383936534
Utterly Art,1.2837721,103.8446514,gallery,node,2497047979
Chinatown,1.2829435,103.8441517,attraction,node,2511049756
Kartright Speedway,1.3289694,103.6823339,attraction,node,2656671597
Mint Museum of Toys,1.2963108,103.8546099,museum,node,2738929707
Confucius statue,1.3382601,103.7289359,monument,node,3270110552
1-Altitude Viewing Gallery,1.284747,103.8509933,viewpoint,node,3324020268
Lee Kong Chian Natural History Museum,1.3014296,103.773624,museum,node,3524204697
The Southernmost Tip of Mainland Asia,1.2659351,103.5120298,viewpoint,node,3695992242
Chinatown Heritage Centre,1.2834963,103.8443296,museum,node,3756799298
新加坡佛牙寺龙华院,1.2813051,103.8444324,museum,node,3756800538
Singapore Coin and Notes Museum,1.2834033,103.8444799,museum,node,3756807018
Musical Box Museum,1.2807264,103.8474662,museum,node,3856046951
Civil Defense Heritage Gallery,1.2920735,103.8491424,museum,node,4047389534
Skyville@Dawson,1.2958062,103.8099916,viewpoint,node,4108805599
masjid Amanatul Haq,1.1091562,103.9855289,viewpoint,node,4279073389
Arab street shops,1.3004402,103.8598028,attraction,node,4289598390
Primary Rainforest Urban Walk,1.3123211,103.8158633,attraction,node,4314443191
Battlebox Visitor Centre,1.296123,103.8462345,museum,node,4362541394
The Archeological Dig and Exhibition Area,1.2946094,103.8475802,museum,node,4362541694
Monsoon Point Break,1.3164035,103.9761603,viewpoint,node,4378685092
megazip adventure park,1.2568794,103.814305,attraction,node,4402052494
Clementi Crescent Playground,1.3237658,103.7730137,playground,node,4425556290
Tortoise Shelter,1.2236891,103.8608616,attraction,node,4484869393
Paddle Lodge Pandan Reservoir,1.3200331,103.7366181,attraction,node,4523600291
The Intan,1.314681,103.9009812,museum,node,4530892089
Certis Cisco west hub,1.3305704,103.7385721,attraction,node,4537990591
Pororo Park,1.2906104,103.8570795,theme_park,node,4560997465
Chancery Lane Pill Box,1.3221485,103.8385138,attraction,node,4564614398
Imbiah Bunkers,1.2569011,103.8147474,attraction,node,4568833161
Sakya Muni Buddha Gaya Temple,1.31482,103.856897,monument,node,4692287495
Old Boys Gallery,1.2765042,103.8358248,gallery,node,4737053628
Gallery 278,1.2949267,103.8418278,gallery,node,4738223788
Ruins,1.3201875,103.782535,attraction,node,4746819482
Ruins,1.3204468,103.7822902,attraction,node,4746819559
Former Buona Vista Battery No. 2 Gun,1.3187031,103.7753593,attraction,node,4747069527
Seah Im Air Raid Shelter,1.2688747,103.8173732,attraction,node,4747135557
Southernmost Point of Continental Asia,1.2479468,103.8214116,viewpoint,node,4749908922
National Gallery Singapore,1.2902557,103.8514709,museum,node,4759240362
Learning Forest,1.3091744,103.8142292,attraction,node,4772535860
Obelisk,1.2628295,103.8049521,attraction,node,4907674520
Pillbox,1.2648422,103.8035416,attraction,node,4907708671
Singapore City Gallery,1.2795017,103.8451897,museum,node,5003225021
Peranakan Terrace houses,1.3103725,103.902457,attraction,node,5018207223
Street of Peranakan shophouses,1.3141955,103.8989857,attraction,node,5026572225
Arab Street,1.3021612,103.8583262,attraction,node,5140584427
Kindergarden playground,1.2874015,103.8152362,playground,node,5209631671
Happy Family of Five,1.2901856,103.8548216,monument,node,5226194022
Lithe House,1.3049244,103.8527464,attraction,node,5283108421
Peranakan Terrace Houses,1.3137524,103.90286,attraction,node,5344372224
Light Show Viewing Point,1.2840841,103.8584382,viewpoint,node,5350977624
Viewpoint (westward),1.3051792,103.9420009,viewpoint,node,5352193422
Viewpoint (eastward),1.3130549,103.9586171,viewpoint,node,5352193423
Viewpoint (eastward),1.305357,103.9424755,viewpoint,node,5352224922
Lorong Melayu Park Playground,1.3239518,103.9091144,playground,node,5367640576
Arts Play,1.306134,103.9050389,playground,node,5414652929
Archery Range Indoor,1.3327551,103.8670265,attraction,node,5450272625
Henderson Waves,1.2760507,103.8154142,attraction,node,5486212721
Bambusetum,1.3112897,103.8128795,attraction,node,5549593967
Light Show: Garden Rhapsody,1.2821068,103.8639782,attraction,node,5647751955
Badminton court,1.3156525,103.7716297,playground,node,5667225855
Singapore Botanic Gardens Heritage Museum,1.3087398,103.8176157,museum,node,5667430193
Fragrant Garden,1.3174422,103.8163834,attraction,node,5708459524
Ruins,1.2782692,103.8037294,attraction,node,5708926389
Madame Tussauds Singapore,1.2540986,103.8177656,museum,node,5717895585
Communal Gardening Flower Beds (by NParks),1.3356858,103.9256042,garden,node,5723622269
Forest Walk,1.2799997,103.8030222,attraction,node,5754100521
4D Adventureland,1.2553342,103.8165435,theme_park,node,5761606753
Timezone,1.3109566,103.8566191,amusement_arcade,node,5803273229
Splash-N-Surf,1.3037008,103.8727201,water_park,node,5808536801
OmOcha!! World,1.3023951,103.8764879,amusement_arcade,node,5808854467
Timezone,1.300317,103.8446355,amusement_arcade,node,5825269295
Reflections at Bukit Chandu,1.2794721,103.7940834,museum,node,5829461647
Taman Indah,1.0502389,103.9649322,park,node,5985661242
Tiban Koperasi Blok S,1.1037182,103.9651989,park,node,5993538418
Bell of Happiness (Dar Pomorza),1.2716597,103.8189686,attraction,node,6009344392
MacRitchie Reservoir Submerged Boardwalk,1.3413737,103.8315193,attraction,node,6021713085
Forest Canopy Walk,1.2785287,103.8093385,attraction,node,6075719088
Local market,1.3482625,103.7575012,attraction,node,6082964185
Banyan Tree & Ruin,1.3066832,103.8663997,attraction,node,6084050885
Jalur Masuk Tiban Palem,1.1047831,103.9646907,park,node,6133089412
Hidden underground Japanese era structure,1.3467942,103.8138053,attraction,node,6260971088
Timezone,1.2637426,103.8231361,amusement_arcade,node,6271033416
Harmony in Diversity Gallery,1.2793567,103.8466029,gallery,node,6356165775
Plant House,1.3101143,103.8174937,attraction,node,6411349985
Jose Rizal Mercado,1.2870885,103.8524684,monument,node,6435167605
Malay Garden,1.2824379,103.8629641,information,node,6449211272
Malay Garden,1.2825991,103.8632911,information,node,6449211273
cipta green mansion,1.12693,103.9592995,park,node,6451532872
Happy Castle,1.2640569,103.820269,playground,node,6549175968
Objectifs - Centre for Photography and Film,1.2998033,103.8520187,museum,node,6712453286
Common themed playground,1.3363519,103.9359052,playground,node,6726257232
Toy Or Game,1.2996966,103.854524,amusement_arcade,node,6743669012
Paco Funworld,1.2993602,103.8542024,amusement_arcade,node,6743669023
Prize Station,1.2994059,103.8540031,amusement_arcade,node,6743669025
Old terraced houses,1.3145414,103.9005788,attraction,node,6776050785
The Kiap Kiap Place,1.2913463,103.849487,amusement_arcade,node,6780444018
The Polliwogs,1.2892773,103.846981,playground,node,6780648687
The Joy Of Toys,1.2892413,103.8469681,playground,node,6780648708
rumah pekerja hortpark,1.308246,103.761885,viewpoint,node,6797999685
NUS Museum,1.3014454,103.7725633,museum,node,6807575789
Tree House,1.321681,103.8189373,playground,node,6813552034
Forest Trampoline,1.3201262,103.817396,playground,node,6813590941
The Bunker,1.3200847,103.8178503,attraction,node,6813590943
Nature Playgarden,1.2796318,103.7979487,playground,node,6814961285
Marina Bay View,1.2846726,103.8540476,viewpoint,node,6837406386
tempat bermain,1.146492,103.9956781,garden,node,6871099010
Lahan Kosong,1.1103577,103.9800004,park,node,6881219025
lahan terbuka,1.1247881,103.9717336,park,node,6881439205
perkebunan,1.1229684,103.9694899,garden,node,6881439247
Fuk Tak Chi,1.2828764,103.8487822,museum,node,6884053285
Nerf Action Experience,1.29118,103.858,playground,node,6895101634
Family Arcade,1.29504,103.86,amusement_arcade,node,6895178404
Arcade Planet,1.29449,103.858,amusement_arcade,node,6895262233
Dragon's Teeth Gate Viewpoint,1.2600017,103.807375,viewpoint,node,6899658954
Haji lane,1.3015475,103.858471,attraction,node,6912346185
Our Museum @ Taman Jurong,1.3351119,103.7220303,museum,node,6942610082
Colourful house in little India,1.3071451,103.8510017,attraction,node,6953424385
The Private Museum,1.2981295,103.8512851,museum,node,7015806929
Leica Gallery,1.2957567,103.853871,gallery,node,7053715520
G Art,1.2969181,103.8538671,gallery,node,7053744370
Fun Claw,1.2995786,103.8454646,amusement_arcade,node,7079427340
CDL Green Gallery,1.3083692,103.8177353,gallery,node,7096008183
Sundaram Tagore Gallery,1.2773877,103.803808,gallery,node,7142188653
Chan + Hori Contemporary,1.277679,103.8044879,gallery,node,7142188654
Yavuz Gallery,1.2783219,103.8042837,gallery,node,7142188656
ShanghART Gallery,1.2783119,103.8043783,gallery,node,7142188657
The Columns,1.2792202,103.805187,gallery,node,7142188681
Mizuma Gallery,1.2792202,103.8050361,gallery,node,7142188682
Artcommune Gallery,1.2964336,103.8526517,gallery,node,7175058264
Fort Canning Tree Tunnel,1.2972574,103.846395,attraction,node,7215457385
Biba Playground,1.3413559,103.7026117,playground,node,7480584403
Jurassic MIle Start/End,1.33506,103.9834882,attraction,node,7733212537
Jurassic Mile Start/End,1.3275392,103.9807014,attraction,node,7733212539
Jurassic Mile,1.3331625,103.9830849,attraction,node,7733212551
Timezone,1.3402199,103.7065657,amusement_arcade,node,7756456788
San-Ee Art Gallery,1.2968849,103.8540199,gallery,node,8022188486
Cape of Good Heart Gallery,1.2968326,103.8538211,gallery,node,8059361244
Zen Art Gallery,1.2971067,103.8534897,gallery,node,8059370595
Art plus Gallery,1.2967666,103.8539068,gallery,node,8059375621
Colourful Shophouses,1.3235587,103.8510073,attraction,node,8108537848
Beaded Collection,1.3198501,103.8167142,attraction,node,8108578052
Viewpoint (westward),1.3137736,103.9634724,viewpoint,node,8202120067
Viewpoint (eastward),1.3139639,103.9639059,viewpoint,node,8202120068
Interim Park at Lengkong Enam,1.3274529,103.9147346,park,node,8233004916
Timezone,1.2909616,103.8582578,amusement_arcade,node,8354883599
Fost Gallery,1.2774981,103.8034996,gallery,node,8362814678
Comma Space 逗号空间,1.2774312,103.8034598,gallery,node,8362841949
Tuas Lamp Post 1,1.2417202,103.6149693,attraction,node,8389088599
Arcade 1998,1.2865066,103.8267617,amusement_arcade,node,8460232074
Kallang park connector,1.3208882,103.8671665,park,node,8482680637
Supertree Observatory,1.2819416,103.8639337,viewpoint,node,8485491035
Hologate Singapore,1.2911388,103.8500669,amusement_arcade,node,8527191281
Kwok Gallery,1.3054099,103.8302025,gallery,node,8566518469
Coastal PlayGrove,1.29678,103.8997611,playground,node,8568946187
Former Tuas TV World Site,1.3472497,103.6398656,attraction,node,8573358107
Gate,1.3425102,103.6850606,attraction,node,8573367917
Tiong Bahru Air Raid Shelter,1.2834152,103.8308367,attraction,node,8588406245
Smigy,1.3177835,103.892924,playground,node,8597312108
Virtualand SPC,1.3185269,103.8938808,amusement_arcade,node,8598400988
Abandoned car,1.3313174,103.8216533,attraction,node,8602874913
Fun Claw Bugis Junction,1.2993196,103.8551123,amusement_arcade,node,8610032724
Amazing Castle,1.2993828,103.8543092,amusement_arcade,node,8610207399
Once Upon A Time,1.2968191,103.8996255,playground,node,8663885318
Vertical Challenge,1.2967876,103.8997881,playground,node,8664504673
Abandoned Motorbike,1.268565,103.8192156,attraction,node,8696320617
Big Banyan Tree,1.2702295,103.8199623,attraction,node,8696320717
The Fluxus House,1.2798228,103.8408053,gallery,node,8821249366
Eco-playground,1.3116792,103.8560735,playground,node,8957598454
Botanical Art Gallery,1.3145593,103.8099841,attraction,node,9043808171
Forest Discovery Centre,1.3137975,103.810677,attraction,node,9043819288
Opera Gallery,1.3035296,103.8324563,gallery,node,9050950001
Parc Riviera Playground,1.3204967,103.7523247,playground,node,9083918600
Playground Blk 412,1.310876,103.7712966,playground,node,9084126317
Calisthenics park,1.3099636,103.7710487,playground,node,9084126339
Botanical Garden Gallop extension,1.3124618,103.8122789,park,node,9106366465
Ruins,1.2721544,103.814482,attraction,node,9240327951
Shrine,1.2730334,103.8171795,attraction,node,9328830708
Storage Ruin,1.272132,103.81336,attraction,node,9329489595
Cow Play Cow Moo,1.3368261,103.7793552,amusement_arcade,node,9331307746
Shout,1.3057775,103.8328918,gallery,node,9331507343
Switch Room Ruin #NBE,1.324965,103.775771,attraction,node,9420127457
SAM at Tanjong Pagar Distripark,1.2718818,103.8365546,museum,node,9451765608
Aqueduct,1.335364,103.81527,attraction,node,9457700734
Y2ARTS,1.2816792,103.8194177,gallery,node,9632700637
Doroki,1.3176945,103.8929691,amusement_arcade,node,9653072568
Geylang Serai Heritage Gallery,1.3166806,103.8972022,museum,node,9653219407
JumprRocks,1.3152837,103.894714,playground,node,9653378114
Tokyo Games Station,1.3145927,103.8949321,amusement_arcade,node,9653398523
Parkside Playground,1.3158997,103.8928938,playground,node,9653458066
Conserved Terrace Houses,1.3057409,103.9061586,attraction,node,9671017628
Old Jurong railway,1.32846,103.780294,attraction,node,9671017632
Railway corridor entry point,1.2752149,103.8323796,attraction,node,9671017634
Wawa Planet,1.3037241,103.9010461,amusement_arcade,node,9710656498
Kaboodle,1.3048172,103.9047018,playground,node,9710784635
i12 Katong Play Center,1.3054363,103.904729,amusement_arcade,node,9710870173
blue birds,1.2829441,103.7868417,viewpoint,node,9717823648
XM Studios,1.3083298,103.862186,gallery,node,9739031522
Funclaw,1.2998207,103.8541882,amusement_arcade,node,9759262408
Doroki,1.2997329,103.8541431,amusement_arcade,node,9759262409
Funclaw,1.3426978,103.9528366,amusement_arcade,node,9810396740
Zone X,1.342703,103.9530404,amusement_arcade,node,9810396746
Confluence,1.2868971,103.8450666,gallery,node,9827708296
Penarakan Houses,1.3109516,103.9041935,attraction,node,9893218556
Jolly Fields Play Pit,1.3032961,103.8728476,playground,node,9942071350
Petite Tayo KidsClub,1.3023249,103.8733796,playground,node,9942071367
Paco Funworld,1.3026682,103.8738047,amusement_arcade,node,9942382908
2C Kallang Heights,1.3134902,103.8719135,playground,node,9956116646
5A Kallang Heights,1.3135157,103.8731838,playground,node,9956289491
3C Kallang Heights,1.3139671,103.8727395,playground,node,9956303420
CapitaSpring Sky Garden,1.2839722,103.8500286,viewpoint,node,10052925640
CapitaSpring Green Oasis,1.2839397,103.8499873,garden,node,10052925641
SuperPark,1.295964,103.858696,playground,node,10106164307
Colugo Deck,1.3448352,103.7820855,viewpoint,node,10184046051
Rock Sorter,1.3439377,103.7813695,attraction,node,10186111420
Vantage Point to view Supertree show,1.2815817,103.8646617,viewpoint,node,10280120309
Railway Museum,1.3345702,103.7815244,museum,node,10285452503
Light Show: Spectra,1.2844155,103.8579351,attraction,node,10310520680
Eurasian Heritage Gallery,1.310035,103.8993185,museum,node,10550118437
MOE Heritage Centre,1.32582,103.8448679,museum,node,10559834077
Tan Hoon Siang Mist House,1.3133077,103.814459,attraction,node,10692285105
Eastwood Park Playground,1.3233253,103.9575718,playground,node,10766853334
Block 119 Playground,1.2812969,103.8275268,playground,node,10768753673
Playground at Jalan Bukit Merah Blk 116,1.2814236,103.8269069,playground,node,10768753674
Rooftop garden,1.3413963,103.6932997,park,node,10797486847
Ellie Art Studio,1.333951,103.8880162,gallery,node,10808393883
Southernmost continental point of Eurasia,1.2656957,103.5104426,attraction,node,10912613560
Staircase to heaven,1.3343291,103.5942962,attraction,node,10914091290
Art Outreach,1.277229,103.8037008,gallery,node,10940110464
Katong Antique House 加東古董,1.3072716,103.9071343,museum,node,10992282619
The Ngee Ann Kongsi Gallery 1,1.2996303,103.8512347,gallery,node,10997766459
Lamipak Gallery,1.3226988,103.8520739,gallery,node,11018023320
Taman Bermain,1.1098361,103.9628725,playground,node,11051246031
Aperia Wonderland,1.3109367,103.8641301,playground,node,11051415798
Taman Bermain,1.1090807,103.9508279,playground,node,11064062034
Ofun,1.3094598,103.8644921,amusement_arcade,node,11090494208
Kampong Glam,1.3015486,103.8622729,attraction,node,11146208305
Playground - 8 Toh Yi Drive,1.3381874,103.7739789,playground,node,11179725031
Playground - 2 Toh Yi Drive,1.3388819,103.7753497,playground,node,11179725032
children playground,1.3471883,103.9333726,playground,node,11180867377
Former Malay Film Productions,1.326446,103.8514982,attraction,node,11288867468
Timezone,1.3037385,103.8320881,amusement_arcade,node,11323077055
ArtScience Museum,1.2861382,103.8592297,museum,node,11361584770
Art Works Gallery,1.31117,103.793813,gallery,node,11391788425
Trickeye,1.2585627,103.8118073,museum,node,11395312837
Bugis Street Back Lane,1.3009022,103.8550275,attraction,node,11472827660
New Art Museum Singapore,1.2719293,103.8371022,gallery,node,11508097286
55 Artspace,1.3274809,103.8751429,gallery,node,11563386251
7879 Gallery,1.3084502,103.8562041,gallery,node,11563386261
Art Seasons Gallery,1.3275153,103.8738738,gallery,node,11563386263
Gallery Thirty Three,1.2869171,103.8472522,gallery,node,11627229961
Eagle’s Eye Gallery,1.2869361,103.8472107,gallery,node,11627229964
Black Earth Arts Museum,1.30862,103.9028068,museum,node,11716744769
Art Social,1.3034834,103.8646159,gallery,node,11724980058
Entrance portal,1.2841796,103.781357,attraction,node,11762038779
Tiger Car,1.2840974,103.7817827,attraction,node,11762046209
Aesthetic Art Gallery,1.3121043,103.862907,gallery,node,11802121100
The Gem Museum,1.304585,103.8531227,museum,node,11806482469
Balestier Art Deco shophouses,1.3216239,103.8530549,attraction,node,11806649909
Alice in Wonderland playground,1.2944734,103.8098801,playground,node,11810727765
Airplane Playground,1.3286414,103.7221597,playground,node,11810727767
Sim Kwong Ho shophouses,1.323241,103.8525342,attraction,node,11818534979
Symphony Streams,1.2525766,103.8182518,attraction,node,11819634278
Scented Sphere,1.2530247,103.8185643,attraction,node,11819634279
Tactile Trellis,1.2534744,103.8188211,attraction,node,11819634280
Lookout Loop,1.2541665,103.8189754,viewpoint,node,11819634281
Glow Garden,1.2521276,103.8180991,attraction,node,11819634282
Kwan Loon Yen Shophouses,1.3257075,103.8497048,attraction,node,11828532018
Straits Enclave,1.309326,103.9022572,museum,node,11834999308
The Xperience,1.2906454,103.8450912,amusement_arcade,node,11850350141
VIP Orchid Garden,1.3124833,103.8136894,attraction,node,11862049582
Secret Ravine,1.3134364,103.8143404,garden,node,11862078921
Yuen Peng McNeice Bromeliad Collection,1.3132709,103.8140255,garden,node,11862078922
Celebrity Orchid Garden,1.3127724,103.8143277,garden,node,11862078923
Golden Shower Arches,1.3116605,103.814398,garden,node,11862078926
Enchanted Garden,1.3117774,103.8141939,garden,node,11862078927
Silver Arches,1.3118903,103.8140329,garden,node,11862078928
Pesona Alam Tangga Seribu,1.1448381,103.9472026,attraction,node,11936563707
Tangga 1000 Taman Habibie,1.1450385,103.9475085,viewpoint,node,11936563718
10 Jalan Eunos Gallery Space,1.3185505,103.9069877,gallery,node,12093257647
Red Playground,1.3294128,103.9018428,playground,node,12206213775
Jews of Singapore Museum,1.2981438,103.8504861,museum,node,12231175233
Rave,1.2911927,103.8591168,amusement_arcade,node,12232184753
Grave of Tan Tock Seng,1.2860508,103.835076,attraction,node,12389540382
Waterboom Dreamland,1.0610214,103.9376829,water_park,node,12393113960
Roof Garden,1.2758213,103.8495816,viewpoint,node,12464143608
Fun Claw 楽しい爪,1.317556,103.8926184,amusement_arcade,node,12526588111
Decomissioned Bus,1.3240028,103.8464627,attraction,node,12533886455
KidZania Singapore,1.2513879,103.8203676,attraction,node,12541123301
PLQ playground,1.315937,103.8933905,playground,node,12655533110
Yuhua Village Neighbourhood Park,1.3450223,103.7375932,park,node,12955571622
Hong Kah East Neighbourhood Park,1.3462164,103.7360433,park,node,12955571623
Dover Meadow,1.3054552,103.7779787,park,node,12956597652
bomb shelter ruin,1.2669806,103.8012948,archaeological_site,node,12998135801
Mural: Samsui Lady with Cigarette,1.2812004,103.8450868,attraction,node,13042628603
Skyline View,1.2805064,103.8709323,viewpoint,node,13042664601
Spice Garden,1.2947087,103.8481281,garden,node,13133326855
Roof Terrace,1.2892186,103.8560315,viewpoint,node,13296344401
The Chandelier Slide,1.3398349,103.9843723,attraction,node,13300508001
Fort Canning Park,1.2940381,103.8467134,park,way,16892550
East Coast Park (Zone C),1.3005075,103.9116279,park,way,23161989
Istana Kampong Glam,1.3026709,103.8599476,castle,way,30527029
National Museum of Singapore,1.2965624,103.8484117,museum,way,32342169
Haji Lane,1.3012267,103.8587337,attraction,way,32489943
Pearl's Hill City Park,1.284708,103.8398398,park,way,39430856
Emerald Hill,1.303058,103.8393539,attraction,way,41662089
Domain of the Istana,1.3047286,103.8438073,park,way,41662337
Little India,1.3076465,103.8536548,attraction,way,41662548
Henderson Waves Bridge,1.2762473,103.8154607,attraction,way,41665003
Eunos Harmony Hub,1.3311084,103.9142116,common,way,41840868
Istana,1.3070961,103.8428805,castle,way,41895536
Speakers' Corner,1.2864788,103.8459025,attraction,way,44414592
Hong Lim Park,1.2863077,103.8465825,park,way,44414597
Katong Park,1.2969695,103.8867907,park,way,44488254
Jurong Hill Park,1.3178263,103.7071629,park,way,44638522
Istana Park,1.2992647,103.8438301,park,way,46522850
Asian Civilisations Museum,1.2874463,103.8514197,museum,way,46595390
Faber Point,1.2735918,103.8176689,attraction,way,46671412
Garden Hill Park,1.3271816,103.9291945,park,way,46820921
Foo Hai Ch'an Monastery,1.3180385,103.8884898,common,way,46928504
Burkill Hall,1.3123265,103.8136875,museum,way,47250130
Singapore Botanic Gardens,1.3146697,103.8160569,park,way,47257476
Yunnan Garden,1.3440939,103.6851005,park,way,49967616
Chinese Heritage Centre,1.3437883,103.6840222,museum,way,49968763
Penang Road Open Space,1.3002167,103.8411737,park,way,52235098
Dhoby Ghaut Green,1.2986105,103.8459941,park,way,52235738
HortPark,1.2790524,103.7994889,park,way,54029860
Kent Ridge Park,1.28344,103.7907086,park,way,54517790
Haw Par Villa,1.2841831,103.7824654,attraction,way,54519182
Carmichael Road Playground,1.3426723,103.863081,park,way,79158352
Tampines Park,1.3495363,103.9426308,park,way,85585115
Tampines Green,1.3506423,103.94657,park,way,85585118
Universal Studios Singapore,1.2542331,103.8229909,theme_park,way,95756945
Lord Farquaad's Castle,1.2551671,103.823975,castle,way,95756955
Jurong West Neighbourhood Park,1.3401754,103.702322,park,way,97193422
Science Centre Singapore,1.3328648,103.7359522,museum,way,97638264
Duxton Plain Park,1.2801939,103.8414082,park,way,101408875
EcOasis,1.3085463,103.7808699,garden,way,103542082
The Sanctuary,1.3083888,103.7792162,garden,way,104661321
Raffles Place Park,1.2838561,103.8515019,park,way,106193383
Tanah Merah Playground,1.3288074,103.946861,playground,way,111284681
Taman Jurong Greens,1.3367569,103.7187037,park,way,112562765
Jurong Hill Tower,1.3174225,103.707856,viewpoint,way,115826789
Cyclist Park,1.3042496,103.9240087,park,way,116687143
Bedok South Neighbourhood Park (west),1.321638,103.9351726,park,way,116690144
Red Dot Design Museum,1.2800726,103.8562657,museum,way,116801907
The Lawn@Marina Bay,1.2802543,103.8533353,park,way,116905791
Taman Permata Park,1.3499727,103.835026,park,way,117038447
Tanjong Pagar Park,1.2765638,103.8458409,park,way,117052183
Jurong Central Park,1.3378761,103.707802,park,way,119096618
West Coast Park,1.288417,103.7716915,park,way,119851909
West Coast Park,1.2961371,103.762805,park,way,119851912
Town Green,1.304908,103.773095,park,way,125775139
Peranakan Museum,1.2942776,103.8490826,museum,way,127348526
Bukit Batok Neighbourhood Park,1.3474576,103.7513621,park,way,128019947
Bougainvillea Park,1.3267037,103.8077359,park,way,128601261
Bedok Ria Park,1.3273757,103.9530768,park,way,142528985
Marina Barrage Pump House,1.2806838,103.8703316,attraction,way,150819013
Golden Rise Playground,1.3361843,103.764859,playground,way,151667292
Malay Heritage Centre,1.3028874,103.8598221,museum,way,155990073
Sentosa Nature Discovery,1.2558657,103.8173468,museum,way,159637727
Marine Aquaculture Centre,1.2163132,103.8494949,attraction,way,160827378
Tropical Marine Science Institute,1.2162552,103.8509117,attraction,way,160827380
Alexandra Canal Linear Park,1.2926141,103.816646,park,way,161135985
Highgate Walk Playground,1.340406,103.7660001,playground,way,162157961
Waterfront Promenade,1.2889062,103.8551813,yes,way,164881341
Duxton Plain Park,1.2775256,103.8418645,park,way,171975663
Vanda Miss Joaquim Park,1.2766449,103.8425567,park,way,171975665
Web of Life,1.2804986,103.8637425,garden,way,171979072
Indian Garden,1.2832883,103.8643244,garden,way,171979074
Understorey,1.2810895,103.8647478,garden,way,171979076
Secret Life of Trees,1.282677,103.864952,attraction,way,171979082
Supertree Grove,1.2820667,103.8640021,attraction,way,171979084
Malay Garden,1.2824652,103.8629936,garden,way,171979086
Chinese Garden,1.2830986,103.8635474,garden,way,171979089
Fruits and Flowers,1.2806659,103.8642976,garden,way,171979090
World of Palms,1.281784,103.8648788,garden,way,171979091
Discovery,1.2802794,103.8632698,garden,way,171979095
Colonial Garden,1.2813707,103.8628514,attraction,way,171979098
Golden Garden,1.2823904,103.8658122,attraction,way,171981665
Somerset Youth Park,1.3003621,103.8364411,park,way,171992297
Telok Ayer Park,1.2781149,103.8467817,park,way,172025314
Bukit Purmei Hillock Park,1.2736467,103.8239497,park,way,172093862
Seng Poh Tea Garden,1.2837027,103.8312442,park,way,172241919
Alexandria Hill East Neighborhood Park,1.2872091,103.809209,park,way,172243396
Nagore Durgha Indian Muslim Heritage Centre,1.2814593,103.8478699,museum,way,172272609
Silver Garden,1.2842578,103.8634956,attraction,way,172288945
Sri Temasek,1.3038996,103.8430407,castle,way,172413996
Bougainvillea Garden,1.3106867,103.9468065,garden,way,172471261
Baba House,1.2770668,103.8373587,museum,way,172814143
one-north Park,1.3033979,103.7903099,park,way,173033562
Bedok Reservoir Park,1.3430812,103.92682,park,way,173225285
Bedok Town Park,1.3347118,103.9259766,park,way,173225286
Shaw Foundation Symphony Stage,1.3137599,103.8150435,attraction,way,173623373
Bangsawan Park,1.3211989,103.9238553,park,way,174281598
Siglap Park,1.3113103,103.9283837,park,way,174281646
Siglap Park,1.3199399,103.924883,park,way,174281647
Siglap Park,1.317417,103.9260742,park,way,174281648
Siglap Park,1.3145317,103.927442,park,way,174281649
Raintree Cove,1.3023831,103.9163079,park,way,174717955
Road Safety Community Park,1.2979449,103.9028252,park,way,174717956
East Coast Park (Zone B),1.2965283,103.8949284,park,way,174721786
East Coast Park (Zone D),1.3046544,103.9242447,park,way,174721790
East Coast Park (Zone E),1.3071292,103.9336501,park,way,174721791
East Coast Park (Zone F),1.3095578,103.9448313,park,way,174721792
East Coast Park (Zone G),1.3136697,103.9574683,park,way,174721793
Sixth Avenue Playground,1.3224236,103.7912836,playground,way,174886219
Clementi Woods,1.2997949,103.7677109,park,way,175550316
Indian Heritage Centre,1.3056595,103.8522889,museum,way,176326997
SkyHelix Sentosa,1.2549571,103.8176119,attraction,way,176839464
Trick Eye Museum,1.2569771,103.8226554,museum,way,176907548
Mayfair Park,1.3415644,103.780927,park,way,178103480
House of Tan Teng Niah,1.3070589,103.8509346,attraction,way,178436852
Villa,1.3037768,103.8420255,castle,way,178929272
Telok Kurau Park,1.315658,103.9141863,park,way,180910357
Binchang Rise Playground,1.3487915,103.8435473,park,way,181002739
Garden of Fame,1.3175454,103.7077824,park,way,182819154
Yunnan Park,1.3373873,103.6929226,park,way,189634955
Henry Park,1.3162631,103.7831279,park,way,190023271
North Bridge Garden,1.3041183,103.862195,park,way,190945735
Novena Rise Park,1.324919,103.8427261,park,way,201275612
Ann Siang Hill Park,1.2808366,103.8461348,park,way,218253806
Clover Way Playground,1.3500345,103.8460466,park,way,221195489
Aljunied Park,1.3294502,103.8799557,park,way,222591994
Changi Business Park,1.3387141,103.9676178,park,way,223860491
Greenleaf Playground,1.3223431,103.7881445,playground,way,230117965
Istana Heritage Gallery,1.2994492,103.8433681,museum,way,231917921
Singapore Discovery Centre,1.3326511,103.6790962,museum,way,238927124
The Studio/Rise of Asia Museum (2024),1.285473,103.7815186,museum,way,238933756
Infinity Pool,1.2835234,103.8605155,yes,way,251802411
Lorong 40 Geylang Playground,1.3136755,103.889383,park,way,253929400
Novena Park,1.3223561,103.8428344,park,way,255005492
Tan Kim Seng Fountain,1.2911259,103.8541981,monument,way,256153658
Air Force Museum,1.3467365,103.89936,museum,way,256633230
Telok Ayer Green,1.2814795,103.8476461,park,way,259865048
The Army Museum of Singapore,1.3317336,103.6769901,museum,way,260182984
Far East Organization Children's Garden (water playground),1.2832954,103.867008,playground,way,260411389
Orchard Fountain Corner,1.3015952,103.8376263,park,way,260954101
Goldhill Avenue Playground,1.3211062,103.8331472,playground,way,261041686
Jalan Riang Park,1.3471518,103.8673949,park,way,262162119
Teban Neighbourhood Park,1.3206413,103.7406349,park,way,265150910
Smith Street,1.282134,103.8444783,attraction,way,269909056
Bedok Reservoir Road Neighbourhood Park,1.330932,103.9141578,park,way,271384970
Eunos Community Club,1.3325147,103.9152472,common,way,271391146
Sun Yat Sen Nanyang Museum,1.3280672,103.8470376,museum,way,271791474
Zhongshan Park,1.3272232,103.8470034,park,way,271791476
Somme Road Playground,1.3115389,103.8581559,park,way,291415385
Sunshine Park,1.3468546,103.8741174,park,way,304614126
Tai Keng Gardens Playground,1.346268,103.8849978,park,way,304615294
Toa Payoh Sensory Park,1.3350547,103.8528173,park,way,306458376
Toa Payoh Lorong 7 Park,1.3389897,103.8534654,park,way,306458527
Bishan Harmony Park,1.3450212,103.8477391,park,way,306458562
Play@Heights Park,1.3345397,103.8442032,park,way,306458911
Oasis @ Mulberry Park,1.3328416,103.8784415,park,way,307082416
Butterfly Ave Playground,1.3344462,103.8773657,park,way,307082466
Chempaka Avenue Playground,1.3318411,103.8756465,park,way,307082729
Neighborhood Park,1.33582,103.8808569,park,way,307084567
Sensory Garden,1.3488117,103.9407786,park,way,308662419
Jalan Chempaka Kuning Playground,1.3297065,103.9502097,playground,way,312722352
Chiltern Drive Park,1.3485803,103.8620052,park,way,327714403
Tiong Bahru Park,1.2876703,103.8240764,park,way,329762423
Kallang Riverside Park North,1.3076899,103.8678196,park,way,329862529
Kallang Riverside Park East,1.3078091,103.8703799,park,way,329863911
Nepal Park,1.3017946,103.7882225,park,way,334124317
Watten Heights Playground,1.3315275,103.8089824,park,way,336772793
Shelford Road Playground,1.3283701,103.8105087,park,way,336813651
Mount Faber Park,1.2717441,103.8190374,park,way,343746558
Terrace Garden,1.2789529,103.8107647,park,way,343746563
Lyndurst Road Park,1.3037947,103.8882101,park,way,351177577
Arena Park,1.3044078,103.8769642,park,way,358462339
Singapore Sports Museum,1.3013468,103.8734098,museum,way,358462343
Burgundy Crescent Playground,1.3396619,103.7610519,park,way,370373911
Jalan Senang Park,1.3290231,103.9157029,park,way,388267391
Taman Kembangan Park,1.3250066,103.914415,park,way,388268882
Rumah Tinggi ECO Park,1.2889861,103.8090459,park,way,391093269
Meyer Road Playground,1.2985487,103.8942282,park,way,393191809
Playground and fitness corner,1.3084541,103.8867776,park,way,394948460
Youth Olympic Park,1.2890893,103.860468,park,way,395120471
one-north Park Rochester East,1.3054832,103.7890503,park,way,406709058
Jalan Batu Park,1.3022617,103.8832634,park,way,425037843
Firefly Park,1.320405,103.7645698,park,way,425243655
one-north Park Rochester West,1.306044,103.788102,park,way,425721984
one-north Park Fusionopolis North,1.3008981,103.7905529,park,way,425721985
one-north Park Fusionopolis South,1.2993812,103.7907287,park,way,425721986
Cultural Hub,1.3466708,103.9419831,park,way,425940037
Ru Yum T'a,1.3391571,103.7309402,monument,way,426110732
Mount Emily Park,1.3046163,103.8475131,park,way,437015220
Wayang Stage,1.321594,103.8526892,attraction,way,439331320
Whampoa Park,1.3254694,103.8563441,park,way,439331643
Jalan Bahagia Community Garden,1.3265401,103.8580682,garden,way,444585184
The Rocking Horse Playhouse,1.334236,103.7962708,playground,way,452723822
Coronation Park,1.321955,103.7963884,park,way,454093139
War Memorial Park,1.2927798,103.8547547,park,way,460428718
Jambol Place Park,1.2790613,103.7901696,park,way,461308069
Chwee Chian Playground,1.2794701,103.7889499,park,way,461308070
Water Works Exhibition,1.3331415,103.736421,water_park,way,462044188
Kinetic Garden Exhibition,1.3338392,103.7363644,theme_park,way,462044189
Vista Park Open Space,1.2817701,103.7905816,park,way,462275168
Central Linear Park,1.2780214,103.851888,park,way,463857954
Lakeside Garden,1.3437762,103.7247732,park,way,464140280
Bishan Kallang PCN Park,1.3508552,103.8535812,park,way,468578566
Bishan Street 11 Recreation Park,1.3457605,103.8559863,park,way,468586018
No 61 Lorong N,1.3103243,103.9128053,park,way,469316802
Aida Park,1.319423,103.927934,park,way,469326976
Elite Park Avenue Park,1.3156052,103.9243432,park,way,469326978
Jalan Pari Burong Park,1.3336911,103.9470094,park,way,469376334
Jalan Pari Dedap Park,1.3329499,103.9438489,park,way,469377042
Eastwood Park Playground,1.3231244,103.9575809,park,way,469377651
Sennett Avenue Playground,1.3170125,103.9362146,park,way,469512136
Tanah Putih Playground,1.3158189,103.9314382,park,way,469620377
Front Lawn of Eden Hall,1.3100504,103.8217105,garden,way,470494587
The Lawn,1.3067608,103.8435288,park,way,472980171
Sunbird Circle Playground,1.3391006,103.9582258,park,way,473674587
Jalan Angin Laut Playground,1.3371418,103.9562471,park,way,473674588
Kew Avenue Playground,1.3216288,103.9484628,park,way,473897355
Handy Road Open Space,1.2989179,103.8471321,park,way,475183080
Clementi Crescent Park,1.3235203,103.7732601,park,way,477622130
Skyline Luge Sentosa,1.2550506,103.8173489,theme_park,way,478355767
Bunga Rampai Park,1.3404677,103.8842605,park,way,479078202
Faber Park,1.3197493,103.7579908,park,way,480683609
Marymount Terrace Playground,1.3493187,103.8403872,playground,way,480687489
Bristol Interim Garden,1.312301,103.8485003,garden,way,481062684
Cambridge Park,1.3136644,103.846838,park,way,481069767
Tiong Bahru Court Playground,1.2852793,103.8260266,playground,way,481366205
White Space Art Asia,1.2823026,103.8304351,gallery,way,481650009
ArtBlue Studio,1.282817,103.8300257,gallery,way,481650013
Jalan Mas Kuning Playground,1.3078523,103.7636064,park,way,481877577
Taman Mas Merah Playground,1.3087031,103.7647604,park,way,481877578
Greenwood Crescent Playground,1.3355033,103.8055217,playground,way,481892908
West Coast Place Playground,1.3143599,103.7584851,park,way,481897305
Palm View Garden,1.3489908,103.7217733,park,way,482529978
Braddell Park,1.3393587,103.8451,park,way,486722943
Jalan Limau Manis Playground,1.3247191,103.9490817,park,way,486764136
Limau Dog Park,1.3248051,103.9504247,park,way,486765104
Bedok Rise Playground,1.3239729,103.9464276,park,way,486765451
Bedok Rise Park,1.3243979,103.946293,park,way,486765502
Sunset Way Playground,1.3265926,103.7663961,park,way,488474268
Sunset Way Park,1.327712,103.764798,park,way,488475221
National Orchid Garden,1.3127466,103.8137141,attraction,way,489365459
Healing Garden,1.3163775,103.8171894,garden,way,489365461
Jacob Ballas Children's Garden,1.3214959,103.8184582,attraction,way,489366770
Evolution Garden,1.3170381,103.8159821,attraction,way,489368546
Old Gasworks Tank Chassis,1.3061685,103.8670126,monument,way,490287651
one-north Park - Mediapolis / Mediacorp,1.2949474,103.7928757,park,way,502647900
Tras Link Park,1.2764208,103.8441213,park,way,506476742
Pirate Ship,1.2502086,103.8199559,playground,way,528233073
Marina Boulevard,1.2800502,103.8577271,yes,way,528858359
Adventure Trail and Treehouses,1.2829785,103.8671104,playground,way,529174060
Recreation Park,1.3468453,103.9522773,park,way,538810898
Bedok Terrace Playground,1.3255055,103.9475158,park,way,538825639
Jalan Buloh Perindu Playground,1.3084852,103.9193861,park,way,539745497
West Coast Green Playground,1.3156993,103.7563662,park,way,539934831
Paya Lebar Crescent Open Space,1.3490165,103.8835722,park,way,539935317
Thrift Drive Open Space,1.3438577,103.8832513,park,way,539935337
Jalan Daud Park,1.3258991,103.9071546,park,way,539935343
Jalan Daud Interim Park,1.3255929,103.9064001,park,way,539935381
Jalan Eunos Interim Park,1.3249021,103.9059889,park,way,539935465
Jalan Awang Interim Park,1.3238699,103.9058691,park,way,539935492
Jalan Ismail Park,1.3232126,103.905837,park,way,539935493
Jalna Yasin Interim Park,1.3213651,103.9055139,park,way,539935512
Lorong Sarina Interim Park,1.3202005,103.9058528,park,way,539935513
Lorong Melayu Park,1.3240064,103.90924,park,way,539935533
Kew Crescent Playground,1.3193787,103.9485469,park,way,539935692
Limau Garden Playground,1.322506,103.9508227,park,way,539935693
Limau Villas Playground,1.3238395,103.9504302,park,way,539935695
Meragi Road Playground,1.3440845,103.9602814,park,way,539935760
East Coast Terrace Park,1.3100577,103.9240438,park,way,540288054
Bishan Summit Playground,1.3473533,103.8509854,playground,way,542371084
Bishan Community Centre,1.3498393,103.8505959,park,way,542426238
Jubilee Gardening Community Park,1.3053314,103.7661917,park,way,544436631
Bishan East Community Park,1.3489195,103.8519979,park,way,544694366
Molecular Playground,1.3462328,103.8500733,playground,way,544694377
Bishan Summit Park,1.3462436,103.8500256,park,way,544694379
Moo Moo playground,1.3455258,103.8516546,playground,way,544694531
Taman Kolam Sekupang,1.1270792,103.9309587,park,way,544982633
Harmony Park,1.3273235,103.9033106,park,way,545780595
Eng Kong Garden,1.337016,103.7691712,park,way,550786365
Hoover Park,1.3438645,103.7730425,park,way,551393430
Pandan Reservoir Fitness Corner/Park,1.3175279,103.7487239,park,way,552201933
Hillock Park,1.3420044,103.8731006,park,way,552957669
Clementi West Tower Park,1.3032675,103.7636274,park,way,555851588
Block 109 Garden,1.3244584,103.9107385,garden,way,556500012
Lor Marican Park,1.3238996,103.907711,park,way,556500021
Lorong Mydin Interim Park,1.3208602,103.911785,park,way,556680329
Lorong Melayu Interim Park,1.3206283,103.9109246,park,way,556680330
Lorong Mazuki Interim Park,1.3203256,103.9099075,park,way,556680332
Lorong Marican Interim Park,1.3201644,103.9090834,park,way,556680333
Lorong Sarina Interim Park,1.3200136,103.9082582,park,way,556680334
Block 34 Playground,1.3096159,103.8840612,playground,way,557140574
Blk 52 Playground,1.3105999,103.8854525,playground,way,557140575
Balam Fitness Corner Park,1.3293948,103.8852218,park,way,557920015
Macpherson Playground and Fitness Corner,1.3226297,103.8874203,park,way,557923716
Geylang East Elderly Park,1.3219497,103.8856536,park,way,557963625
Dakota Crescent Playground,1.3064717,103.8847436,park,way,558231403
Mountbatten / Old Airport Road open space,1.3057409,103.8833461,park,way,558231405
Joo Chiat Terrace Interim Park,1.3143531,103.9017009,park,way,564070450
Greenville Garden Park,1.3264418,103.9021529,park,way,567248094
Kids Playground,1.2873459,103.8150713,playground,way,569794986
Holland Oasis,1.3067889,103.7941133,playground,way,584318476
3G Park @ Shunfu,1.3491328,103.8385705,park,way,585050901
Leng Kee Park,1.2880242,103.8128362,park,way,586526941
Paya Lebar Road Park,1.3328057,103.8886432,park,way,587066314
Bedok South Neighbourhood Park (east),1.3228338,103.9420329,park,way,590309952
Kaki Bukit Neighbourhood Park,1.3325996,103.9276294,park,way,590625581
Binchang Rise Playground,1.3487605,103.8437252,playground,way,591870783
Kaki Bukit Garden Residents' Park,1.3342746,103.9267896,park,way,592564374
Campus Park,1.3196307,103.8183933,park,way,593883881
Marine Crescent Gardens,1.3038873,103.9121368,garden,way,610000235
First Botanic Garden @ Armenian Street,1.294446,103.8494823,garden,way,612127537
Namly Park,1.3233057,103.7966347,park,way,616984344
Taman Gajah Mada,1.1097385,103.9632995,theme_park,way,617539294
Jalan Singa Park,1.3310396,103.9069554,park,way,620553956
East Coast Park (Zone H),1.3155938,103.9694585,park,way,620604152
Boon Lay View Recreation Park,1.3502441,103.7114233,park,way,622934692
Lor Marzuki Park,1.3238001,103.9083557,park,way,625193683
Boon Lay Place Terrace Garden,1.3484019,103.7140729,garden,way,626562197
Sheares park,1.2912277,103.7755779,park,way,627395976
Faber Walk Extension Park,1.3239597,103.7552853,park,way,631851972
Taman Blok. D,1.1089028,103.9713522,park,way,633387347
Ethnobotany Garden,1.3197304,103.8164881,attraction,way,648707161
Bloom Leisure Park,1.330476,103.9232454,park,way,655170348
Dragon Playground,1.3319371,103.8543865,playground,way,657833523
Kheam Hock Park,1.3304332,103.8192397,park,way,659688749
Thomson Road Playground,1.3162626,103.8438589,playground,way,667114031
Maple Lane Park,1.3304357,103.792608,park,way,671043673
Blk 29 Playground,1.3256445,103.8585784,playground,way,675359802
Blk18 Jalan Tenteram Playground,1.3279439,103.8597518,playground,way,675359821
Blk 112 Whampoa Playground,1.3260168,103.857038,playground,way,675359830
Potong Pasir Neighbourhood Park,1.3337796,103.8666815,park,way,675373226
Pesari Walk Playground,1.3244587,103.9539858,park,way,680521565
"Tidal Twister, Pipeline Plunge",1.2570918,103.817957,attraction,way,684985134
Riptide Rocket,1.2571757,103.8177506,attraction,way,684985135
Dueling Racer,1.2572673,103.8176533,attraction,way,684985136
Whirlpool & Spiral Washout,1.2578503,103.8182466,attraction,way,684985138
Wet Maze,1.2581757,103.8188092,attraction,way,684985139
Big Bucket Treehouse,1.2580052,103.8179945,attraction,way,684985140
Adventure Cove Waterpark,1.2580869,103.8181615,water_park,way,684985164
Kensington Sq Recreation Area,1.3454458,103.8826373,park,way,686649304
Kensington Sq Walkway,1.3455946,103.8824241,park,way,686649305
OCBC Skyway,1.2819571,103.8638933,attraction,way,687915906
Merlion Park,1.2860014,103.8541853,park,way,687917300
Fort Canning Gate,1.294974,103.8458567,castle,way,688185418
Memorial to James Brooke Napier,1.2948965,103.8470372,monument,way,688512240
Vintage cameras museum,1.3036785,103.8590837,museum,way,688890778
Amber Tower,1.2978599,103.9057892,attraction,way,692845673
Castle Beach,1.3063801,103.935896,castle,way,693944481
Bukit Batok Central (neighbourhood) Park,1.348441,103.7463674,park,way,694056025
Read Cresent Park,1.2884944,103.8449567,park,way,699164060
Sang Nila Utama Garden,1.292979,103.8478943,garden,way,700987722
Kim Pong Park,1.28363,103.8297509,park,way,702915167
Sunshine Ville Community Garden,1.3475981,103.8737803,garden,way,704292071
Lover's Park,1.2958255,103.7739977,park,way,711953957
Forest Ramble,1.3370634,103.7269718,playground,way,722269823
The Canyon,1.3394121,103.724777,playground,way,722269832
Clusia Cove,1.3402969,103.724881,attraction,way,722269842
Whampoa Gardens Community Garden,1.3255841,103.8580451,garden,way,723981305
Floral Fantasy,1.2814523,103.8612327,garden,way,724651784
lapangan volley,1.103052,103.9682114,park,way,733188815
Hooper Road Playground,1.3122582,103.8431053,park,way,733515171
Taman Jurong Park,1.3282642,103.7210373,park,way,733837723
Lakeside Grove Playground,1.3400503,103.7186153,playground,way,733910357
The Frontier Plaza @ Pioneer,1.3407077,103.7051935,park,way,733910364
lahan kosong,1.1097777,103.9799434,playground,way,734767681
Singapore Botanic Gardens Gallop Extension,1.3132412,103.8108397,park,way,736934929
Mera Terrace Playground,1.3471964,103.9634324,playground,way,739037663
City Green,1.3119593,103.8560951,park,way,739106887
Bonsai Garden,1.3382315,103.7300552,garden,way,739532082
Alexandra Canal Linear Park,1.2937646,103.8132364,park,way,739806936
Alexandra Canal Linear Park,1.2956862,103.8079598,park,way,739806937
Holland Village Park,1.3115552,103.7955602,park,way,741356209
Geylang East Park,1.3217565,103.88767,park,way,741592113
Small Park,1.3120894,103.8741299,park,way,743561239
Chinese Garden,1.3386044,103.7304429,park,way,748701230
ComChest Green,1.2647013,103.8059726,garden,way,750974761
Jurong West Park,1.3456679,103.6941061,park,way,758347463
Mar Thoma Road Park,1.3274648,103.8620787,park,way,762877289
Wilkinson Interim Park,1.3018157,103.8870481,park,way,776915900
Solaris South Tower Rooftop Garden,1.2978285,103.78991,garden,way,777523744
Sennett Avenue Linear Park,1.3182913,103.9359607,park,way,788719675
Children playground,1.3364644,103.8441392,park,way,802417736
Malcolm Park,1.3225488,103.8270429,park,way,808404353
Marine Parade Road Park,1.3056858,103.9091851,park,way,810603397
Simei Neighbourhood Park,1.3458673,103.9533024,park,way,815857721
Cheng Soon Garden Playground,1.3358752,103.7717096,park,way,817265676
Pirate playground,1.2465935,103.8399083,playground,way,829606342
Eco Garden,1.3327072,103.7348472,garden,way,829912075
MacPherson Linear Park,1.3330465,103.8817278,park,way,838602106
Playground between Blk 28 and Blk 29 Marine Crescent,1.3031316,103.9133228,playground,way,845241838
Blk 25B Basketball Court,1.2833038,103.8250315,playground,way,846467291
Playground at 25 Jalan Membina,1.28366,103.8257546,playground,way,846469411
Hilltop park,1.3096214,103.7938918,park,way,846635530
Multi-Generational Play Area,1.2789838,103.7988501,playground,way,860269865
University Road Park,1.3254442,103.8176807,park,way,867325578
DECK,1.3017139,103.8517431,gallery,way,880870252
Kew Drive Playground,1.3208042,103.9518087,park,way,888553590
Clementi Neighbourhood Park,1.3252369,103.7737193,park,way,891257277
Holland Green playground,1.3268119,103.7828141,playground,way,902277462
East Coast Park (Zone A),1.293893,103.8767878,park,way,904611455
Kallang Park Connector,1.3214937,103.8662262,park,way,912423174
The River Vista Community Garden,1.3211477,103.8664737,garden,way,913249348
The River Vista Community Garden,1.3212091,103.8663588,garden,way,933826658
Nature Playgarden,1.2972887,103.9000909,park,way,934999020
Water Play Area,1.2970256,103.8997758,playground,way,934999022
38D Playground,1.3221166,103.8670481,playground,way,936219331
Forest Ramble,1.3375408,103.7268028,playground,way,943447234
Kheam Hock Nature Way,1.3250054,103.8202691,park,way,945738081
Victoria Park,1.321938,103.8019173,playground,way,945738082
Kallang Park Connector,1.3209145,103.8674263,park,way,959819312
Singapore Science Centre,1.3421428,103.7308274,museum,way,973019769
COMO Adventure Grove,1.3137874,103.8099529,playground,way,977378932
Gallop Valley,1.3150715,103.8098098,garden,way,977378933
garden,1.2854016,103.8330945,park,way,979449611
Funan rooftop garden,1.2912349,103.8498304,garden,way,980805888
Kids Playground,1.2948738,103.8126494,playground,way,980943066
Ridout Tea Garden,1.3042113,103.8020766,park,way,985129068
Bidadari Park,1.3398168,103.8744913,park,way,1021812563
Memorial Garden,1.3379447,103.8765959,garden,way,1023098014
Forest City Maze,1.3339712,103.5880491,attraction,way,1041671494
Forest City Water Park,1.3331485,103.5919161,water_park,way,1041681086
Ah Hood Gardens Community Garden,1.3289316,103.8450245,garden,way,1047170926
Rajah Court Community Garden,1.3288664,103.851193,garden,way,1049987709
Nature Playground,1.2745899,103.7928606,playground,way,1055676728
Nature Playground,1.2748501,103.7927588,playground,way,1055676729
SGH Bicentennial Garden,1.2803022,103.8356723,park,way,1065816908
Greenridge Crescent Playground,1.3342569,103.7657585,playground,way,1075543060
Toh Yi Garden Leisure,1.3374403,103.773278,garden,way,1075543061
Savoy Park,1.3334103,103.769987,park,way,1075543062
Eng Kong Place Fitness Corner,1.3347386,103.7672438,garden,way,1075543063
Sian Tuan Interim Park,1.3385318,103.7861674,park,way,1075543072
Singapore Chinese Cultural Centre,1.2758287,103.8495164,museum,way,1080516770
Moulmein View Playground,1.3189027,103.8502505,playground,way,1089642457
Tennis Court,1.3185511,103.7540381,park,way,1091619207
Therapeutic Garden @ Tiong Bahru Park,1.2876505,103.8247107,garden,way,1098112756
Serene Garden,1.278722,103.8611862,garden,way,1101905284
HydroDash,1.2491841,103.820996,water_park,way,1105407556
Kim Seng Park,1.2925904,103.8350686,park,way,1112822318
Therapeutic garden,1.2776659,103.8132927,garden,way,1119085088
Stream Garden,1.2774017,103.8112329,garden,way,1119085473
Pandan Gardens Leisure Park,1.3198595,103.7504178,park,way,1120472410
Koon Seng Park,1.3110766,103.9028119,park,way,1123977017
Carpmael Park,1.3115029,103.8989506,park,way,1131625194
Mount Faber Grace Park,1.2729908,103.8208501,park,way,1132085685
Sunset Heights Open Space,1.3279217,103.7688635,park,way,1136965336
Hell's Museum,1.2838897,103.7816771,museum,way,1138196103
Hua Guan Crescent Playground,1.3370338,103.7850236,playground,way,1139175194
King's Drive Playground,1.3190839,103.806043,playground,way,1139185460
Orchid Village Playground,1.3357391,103.8017153,playground,way,1139293980
Jalan Mas Puteh Playground,1.3089872,103.7620265,park,way,1147523468
The Lost Ark,1.2882855,103.7977092,attraction,way,1148718861
Learn to Skate Pod,1.3433297,103.7266291,attraction,way,1159195802
Big Bowl Pod,1.34363,103.7269932,attraction,way,1159195815
Skate Drain Pod,1.3436656,103.727586,attraction,way,1159195816
Parkour Park with Bouldering Wall,1.3432432,103.7265634,attraction,way,1159195817
Mini Bowl Pod,1.3437067,103.7263602,attraction,way,1159195818
Therapeutic Garden (Adult's Section),1.3352074,103.7278032,attraction,way,1159195824
Therapeutic Garden (Children's Discovery Area),1.3354463,103.7276888,attraction,way,1159195825
Butterfly Maze,1.335712,103.7275796,attraction,way,1159195826
Fragrant Plant Garden,1.2947938,103.7717903,garden,way,1159560730
King's Dock Park,1.2639738,103.8172167,park,way,1162132541
Sentosa Sensoryscape,1.2532145,103.8185886,park,way,1162545200
Bukit Timah Node,1.3346011,103.7812245,park,way,1162741418
SDE1 Courtyard,1.297482,103.7705549,park,way,1162747275
Commonwealth Park,1.2962565,103.797853,park,way,1166122419
Berlayer Point Lighthouse,1.262378,103.8051123,attraction,way,1167538761
Nanyang Ruby Park,1.3432144,103.6900861,park,way,1167764765
Bukit Brown Cemetery gates,1.335101,103.8210549,attraction,way,1169319427
Hatch Art Project,1.2824783,103.8302974,gallery,way,1173008767
Lorong Ong Lye Park,1.3477622,103.8788009,park,way,1175310279
Silat Avenue Park,1.2760143,103.8297623,park,way,1182916066
Aqua Adventure,1.3419979,103.9195429,water_park,way,1185239100
Adventure Fitness Corner,1.3458261,103.9511883,playground,way,1202580778
Eng Kong Cheng Soon Community Garden,1.3361977,103.7645452,garden,way,1206352857
Sit Wah Road dog run,1.2828,103.833912,park,way,1217526082
Rooftop Garden,1.2814802,103.8442275,garden,way,1229267489
Pek Kio Park,1.3163459,103.8494309,park,way,1232950362
Palate Playground,1.2523299,103.8186075,playground,way,1272842505
Alexandra Park Connector,1.2920067,103.8210287,park,way,1292888076
Oatside Funside Playground,1.2926721,103.8392921,playground,way,1294917995
Whampoa Therapeutic Garden,1.3257728,103.8558623,garden,way,1321546684
Adventure Playwoods,1.3395167,103.874937,playground,way,1322908025
Taman Damai Interim Park,1.3288453,103.7238013,park,way,1327237686
Buona vista Node,1.3069944,103.7920289,park,way,1331316307
Taman Rusa Sekupang,1.1233355,103.9355089,park,way,1334679168
Lembah Pelangi Batam,1.1195787,103.9538803,park,way,1335185325
Faber Heights Open Space,1.3225111,103.7575526,park,way,1339435349
Fasum Taman Bacaan Hijau,1.1060551,103.9773138,park,way,1361370114
Siglap Park Connector,1.3096916,103.9171457,park,way,1364763896
Maju Camp Tunnel,1.3260769,103.7754278,attraction,way,1391127348
Healing Garden,1.3168728,103.8165093,garden,way,1408555573
Healing Garden,1.3173721,103.8177047,attraction,way,1408555578
Kim Seng Linear Park,1.2943829,103.8333838,park,way,1412689834
Ganges Avenue Open Space,1.2907793,103.8318002,park,way,1417487139
Bishan East Open Space,1.3441226,103.8523753,park,way,1419114374
Duchess Park,1.3242721,103.8054932,park,way,1433339552
How Sun Linear Park,1.345257,103.8773272,park,way,1435654034
King's Road Park,1.3168886,103.8047835,park,way,1447657085
Victoria Lily Pond,1.2830168,103.8664141,garden,relation,2302556
Kampong Glam Park,1.3027069,103.8630157,park,relation,2576321
Greenfield Drive Playground,1.3130591,103.9176671,park,relation,6915691
Tampines Quarry Park,1.3567365,103.9233702,park,relation,9561590
Resorts World Sentosa,1.2559228,103.8202644,attraction,relation,9574726
Esplanade Park,1.2896869,103.853619,park,relation,9976848
Gardens by the Bay,1.280893,103.8649045,park,relation,10231144
Gardens by the Bay East,1.2881165,103.8714103,park,relation,10247957
Kallang Park Connector,1.3215266,103.8678866,park,relation,12497712
MacRitchie Reservoir Park,1.343322,103.8337126,park,relation,13471549
ArtScience Museum,1.2860633,103.8592603,museum,relation,14314416
Telok Blangah Hill Park,1.2778414,103.809523,park,relation,15394784
Bidadari Greenway,1.3357757,103.8713872,park,relation,15693200
Labrador Nature Reserve,1.2662008,103.8030518,park,relation,15727863
Nanyang Arch,1.3374096,103.6932188,monument,relation,15737512
Pasir Panjang Park,1.2775272,103.7880548,park,relation,16031927
Japanese Garden,1.3349975,103.7313451,park,relation,17880531
Lakeside Garden,1.3345678,103.7269826,park,relation,17880532
Helix Bridge,1.2874768,103.8604428,attraction,relation,18007977
West Coast Park,1.2934538,103.7675132,park,relation,19216560
East Coast Park,1.3047308,103.9222688,park,relation,19580129
Tempat Bermain,1.1623972,104.041682,playground,node,601846791
Ocarina,1.15196,104.05471,viewpoint,node,703856231
Lake/Junggle Jembatan Sei.Ladi (Nice View),1.11076,104.01027,viewpoint,node,703864436
Statue (Music Tradisional),1.1005,104.07793,monument,node,760475061
Statue (Music Tradisional),1.12088,104.10136,monument,node,760486360
Nongsa Point Marina,1.19616,104.09806,viewpoint,node,760540845
Ka'Bah Manasik Haji,1.1245257,104.0561315,monument,node,856985541
Barelang Bridge Viewpoint,0.9833355,104.0409095,viewpoint,node,4144305391
Massage reflexology Reborn,1.1341711,104.0101378,attraction,node,4476867893
Inul vizta,1.1450339,104.0128263,attraction,node,4476978890
Treasure Bay,1.1576249,104.3284292,attraction,node,4568360847
Navy Museum,1.316641,104.0171589,museum,node,4808455745
Welcome to Batam,1.122156,104.0543378,monument,node,5526812884
Tugu Kepri,1.1300506,104.0530595,monument,node,5585508789
motor cross area,1.0256859,104.071609,park,node,5978581320
edelwish,1.1057767,104.0788312,park,node,5980658291
Tugu Nelayan Kp. Melayu,1.1395798,104.1402473,monument,node,5983724704
Rumah Adat Limas Potong,1.1422833,104.1425879,monument,node,5983724734
lapangan voly,1.1394314,104.0297282,park,node,5984529343
taman WIFI,1.1384494,104.0296433,park,node,5984529345
Taman Buluh Hang Tuah,1.1055932,104.0569779,park,node,6866167965
lapangan perumnas,1.0344404,104.0589184,garden,node,6871047234
taman,1.0662184,104.0244558,garden,node,6871047247
lapangan bola kaki,1.135744,104.0012014,garden,node,6871259566
taman,1.1362,104.0057217,garden,node,6871259577
taman pesona,1.1212087,104.0973946,park,node,6874950839
lapangan,1.1221827,104.09704,park,node,6874950849
Taman Marbella,1.1247456,104.0969055,park,node,8302245775
Provinsi Kepulauan Riau,0.8793158,104.4570958,monument,node,8949312633
Barcelona Blok L no 20,1.1194008,104.0980826,park,node,9584855332
GEDUNG GONGGONG,0.9274639,104.438155,park,node,9806275663
Tugu Tanjung Uban,1.0642541,104.2211071,monument,node,9806799328
Taman Doa Maria Bunda Hati Kudus,0.931404,104.4533039,park,node,9838639295
Rimba,0.9306754,104.4546923,park,node,9838649529
Tri Matra Monument,0.8695757,104.4558983,monument,node,10277198495
Fireflies (Kunang-kunang),1.1376378,104.3407363,attraction,node,10701024964
Infinite Studio Park Place,1.1863954,104.0994779,park,node,10962763270
Infinite Studio Batam,1.1866157,104.0994422,gallery,node,10962844087
Taman Bermain,1.1178091,104.0036602,playground,node,11051295041
Tapak Rusyadiah Club Dan Percetakan,0.9263502,104.4198374,attraction,node,11140176305
Tapak Istana Kedaton,0.9259682,104.4194918,attraction,node,11140177605
Kompleks Makam Raja Jakfar Yang Dipertuan Muda Riau VI,0.9266291,104.418668,attraction,node,11140194705
Istana Tengku Bilik,0.9267152,104.4183982,attraction,node,11140196605
Balai Adat Melayu Pulau Penyengat,0.9273128,104.4146953,museum,node,11140210105
Situs Istana Kantor,0.9280804,104.4190583,attraction,node,11140219905
Gedung Mesiu,0.930084,104.4194121,attraction,node,11140224105
Benteng Bukit Kursi,0.9294148,104.4177073,attraction,node,11140226705
Kampung Bugis,0.9401515,104.4437691,attraction,node,11140324105
Perigi Puteri,0.9309252,104.4202662,monument,node,11626602816
Perigi Suluk,0.9277331,104.418751,monument,node,11626602827
Lapangan Tg.Sengkuang,1.1836753,104.0232978,park,way,59401321
Hang Nadim Park,1.1272513,104.1183051,park,way,60754278
Fasum Villa Mas Sei.Panas,1.1438304,104.0288872,park,way,76611555
Fasum Bengkong Harapan I,1.1490083,104.0290231,park,way,76614882
Golden Land,1.1099293,104.0410197,park,way,543022133
Bundaran Tuah Madani,1.1342476,104.0433996,park,way,543022336
Taman Mustika Alam,1.1190545,104.0465783,park,way,543025762
Vihara Dharma Bakti,1.1393673,104.0108097,park,way,543026513
Masjid Anggrek Sari,1.117785,104.0408593,park,way,543028822
Bundaran Otorita,1.1300648,104.0530642,park,way,543239511
Coastal Ocarina,1.1412241,104.0487827,park,way,543239514
Taman Aisyah Sulaiman,0.9155626,104.4440432,park,way,545327180
Alun Alun Tepi Laut,0.9265519,104.4383912,park,way,549363930
Coastarina,1.1501237,104.0502208,park,way,561134540
Kebun Raya Batam,1.1700799,104.081571,park,way,566675315
Taman Danau Greenland,1.1251178,104.0498679,park,way,566680560
Taman Inspirasi,1.1270583,104.0566352,park,way,576141880
Museum Raja Ali Haji,1.1293907,104.0537745,museum,way,576152031
Perumahan,1.1059672,104.0244756,playground,way,610967128
Taman,1.1296512,104.0366779,park,way,618228401
Jogging Track Anggrek Sari Cluster Emerald,1.116358,104.0410374,park,way,632771908
vegetable garden,1.0262332,104.074928,park,way,633336850
dragon fruit garden,1.0256862,104.0743583,park,way,633336852
Rumah Adat Limas Potong,1.142282,104.1426441,monument,way,633961453
Taman #,1.1387068,104.028489,park,way,634064922
Welcome To Batam,1.1221895,104.0543136,monument,way,654171537
lapangan,1.1055163,104.0531078,park,way,654395874
Taman Tuah Melayu,1.1277925,104.0342297,park,way,658051564
Grand I Hotel Park,1.1462693,104.0146943,park,way,695890902
Lapangan RW 10,1.137029,104.0303562,park,way,733143848
Lapangan RW 04,1.1369871,104.0294888,park,way,733145828
Lapangan Perumahan,1.1321642,104.0022055,park,way,733183462
lapangan,1.1047172,104.0421014,park,way,733183594
taman,1.118985,104.0188102,park,way,733187349
taman plamo,1.1044161,104.0420422,park,way,733189433
lapangan golf,1.0980234,104.0362432,park,way,733189435
Taman Villa Mas,1.142324,104.0292708,park,way,733194499
Taman Gajah Mada,1.1185044,104.0496132,garden,way,733196905
Taman Buluh Hang Tuah,1.1055967,104.0569825,park,way,733210230
taman,1.067912,104.0235181,park,way,733616618
pasum villa hanglekir,1.1023399,104.0559011,park,way,733639451
pasum villa hanglekir blok C,1.102027,104.0577766,park,way,733639455
pasum oma blok H 1,1.1058444,104.054923,park,way,733639458
lahan kosong,1.1149226,104.0335814,park,way,733832313
lapangan sepakbola,1.1604957,104.0236991,park,way,733836152
Simpang Kuda,1.1363013,104.0271126,monument,way,734166078
Tugu depan poltek,1.1188265,104.0485432,monument,way,734764681
Kebun Binatang Mini,1.1602439,104.0365775,zoo,way,735039388
perumahan winner millenium mansion,1.1380823,104.0451106,park,way,735115799
Taman Masjid Babusalam,1.1476621,104.0287187,park,way,737505042
Taman masjid Al-Hikmah,0.9280318,104.4427436,park,way,758438530
Museum Sultan Sulaiman Badrul Alamsyah,0.9295953,104.4440401,museum,way,758438534
Taman Masjid Dompak,0.8845551,104.4539726,park,way,758438540
Lapangan Dewa Ruci,0.9174487,104.445075,park,way,758442368
lapangan aisyah sulaiman,0.9155626,104.4440432,park,way,773805553
Taman Bundaran Monumen Kepri,0.8793323,104.4570843,park,way,831646268
Taman Bintan Plaza,0.918936,104.4665713,park,way,831648280
Rimba Jaya,0.9293014,104.4525952,park,way,831652083
Taman Jl. Jemaja,0.9016467,104.467597,park,way,855222322
Lapangan Volly Jemaja,0.9015635,104.4677916,park,way,855222546
Taman Tugu Pensil,0.9201237,104.4392822,park,way,859779416
Taman Monumen Jangkar,0.9106874,104.4390542,park,way,872201317
Taman Marbella,1.124734,104.0968826,park,way,893269903
Taman rusa (Chital Deer) Pacific Palace Hotel,1.1525086,104.0012011,zoo,way,1050174868
Taman Tepi Laut,0.9285891,104.4388459,park,way,1068162449
Gedung Gonggong,0.9274255,104.4381438,park,way,1068162829
Anjung Cahaya,0.9250173,104.4375573,park,way,1131548079
Taman Migas Tun Telani,0.8799603,104.4561584,park,way,1157822837
Monumen Bismillah,0.8796053,104.4526949,park,way,1157823242
Taman Perbendaharaan Kepri,0.8756671,104.4571102,park,way,1157823557
Taman Kanwil DJPB,0.8764851,104.4571804,park,way,1157823657
Taman Mall TCC,0.8944362,104.4794498,park,way,1157825397
Nongsa Digital Park,1.1854958,104.1022795,park,way,1180363171
Infinite Studio Kota Tua,1.1867681,104.0975454,theme_park,way,1180364714
Taman Budaya Tanjungpinang,0.9560251,104.4439727,park,way,1190839554
Lapangan Pamedan,0.9080886,104.4635884,park,way,1205893940
Lapangan Blok H,1.0270278,104.0598523,park,way,1354355060
Taman bermain anak-anak,1.0269799,104.0599826,park,way,1354355062
Alun Alun Pinang Park,0.9155515,104.4817374,park,way,1382547012
Lapangan Tugu KB,0.92619,104.4665127,park,way,1412170546
Dataran Engku Putri (Pemko Batam),1.1286474,104.0540565,park,relation,8244900
TUGU TANGAN BATU 12,0.9377314,104.5106297,monument,node,9806434251
ARECA WATER PARK,0.9038707,104.5067641,water_park,node,9880723741
Tugu FTZ,1.1179301,104.6134123,monument,node,11602978478
Berakit Tracking Mangrove Park,1.2038279,104.5560172,attraction,node,12638694577
Taman Batu 10,0.9219439,104.5083576,park,way,775659740
Bintan Community Centre,0.8500959,104.6036915,amusement_arcade,way,953892802
Trans Studion Park Tanjungpinang,0.9142755,104.5186702,park,way,1196194873
Areca Water Park,0.9045686,104.5065929,water_park,way,1309168548
Taman Rekreasi,0.9071383,104.5081571,water_park,way,1309171504
Taman Monument Relief ANTAM,0.8499697,104.6027907,park,relation,18286255
Gunung Gajah Mountain Viewpoint,1.1592319,108.9745627,viewpoint,node,5529221520
Pantai Tanjung Batu,1.1816042,108.969333,attraction,node,5853354241
Pantai Sinam,1.174716,108.9696818,yes,node,5854554884
Puncak Rindu Alam,0.8581373,108.8990584,viewpoint,node,11347651527
Rumah Radakng Singkawang,0.8849983,108.9932153,attraction,node,12852648342
lapangan apel,0.8714192,108.9909987,park,node,13037494175
lapangan tembak,0.8718711,108.9905703,park,node,13037494176
lapangan tembak,0.8703751,108.9887376,park,node,13037494177
Pasar Tradisional Singkawang,0.9073837,108.9912639,attraction,way,350874064
Pusat Kota Singkawang,0.9095369,108.9889788,attraction,way,350876281
Eiger,0.9103822,108.9930624,attraction,way,574960964
Gedung Landraad,0.9133495,108.9904535,attraction,way,575073075
Rumah Kapitan Cina,0.9120379,108.989475,attraction,way,575073355
Rumah Petinggi Belanda,0.9152894,108.992376,attraction,way,575083231
Rumah Petinggi Belanda,0.9145633,108.9919327,attraction,way,575083249
Gedung Pancasila,0.9130682,108.9914705,attraction,way,575083530
Bangunan Cagar Budaya Marga Tjhia,0.9105275,108.9905106,attraction,way,992621813
Pasar Ikan Bersih Singkawang,0.9071974,108.9908813,attraction,way,1069456524
Taman Burung,0.9123806,108.9903009,park,way,1069464739
Rumah Kapitan Tambi,0.9130061,108.9929752,attraction,way,1194302847
Gedung Generasi Muda FKPPI,0.9138539,108.9919168,attraction,way,1194302860
Tugu Naga Emas,0.9077028,108.9887324,monument,way,1194824420
Tugu Penyerahan Kedaulatan,0.9110547,108.9890377,attraction,way,1197274733
Beringin Park,0.9071643,108.9905033,park,way,1197577872
Beringin Corner,0.9070513,108.9870382,park,way,1198087421
Gedung Bioskop Kota Indah,0.9080583,108.9871325,attraction,way,1199519011
tidak ada rumah petinggi belanda,0.907643,108.9870144,attraction,way,1201114594
Singkawang Cultural Center,0.9125276,108.9849961,museum,way,1202300660
LAPANGAN,0.8713044,108.9901051,park,way,1319599050
Taman Cahaya Madani Gayung Bersambut Singkawang,0.9026377,108.976477,park,way,1388416203
Taman Rekreasi Teratai Indah,0.8938304,108.9922594,park,way,1388462386
Waterboom Gunung Poteng,0.8827655,109.0349848,water_park,way,1388423114
Taman Busang,0.8934438,109.0007607,park,way,1388462383
Waterfall,1.1236284,109.7496921,viewpoint,node,1805070902
Waterfall,1.1275534,109.7448856,viewpoint,node,1805070905
Annah Rais Longhouse,1.1561424,110.2653919,attraction,node,1424328855
Longhouse Kampung Benuk,1.3082295,110.2934633,attraction,node,5834331486
"Hot Spring, Thermal Baths",1.2538181,110.4508339,attraction,node,6068265485
Border point Indonesia,1.1158609,110.2142757,viewpoint,node,6286590891
Tapah Recreation Park,1.2954744,110.4125698,park,node,10821558550
Sungai Stabut,1.2309634,110.3922724,water_park,node,12987034978
Kampung Seroban Playing Field,1.1477583,110.5910623,park,way,1162338379
Tempat Rekreasi Sungai Raya,1.1326963,111.4951209,park,node,5260386635
Panorama Benak,1.2400666,111.4614494,park,node,6936144470
Fort Alice,1.2397781,111.4618339,museum,node,6994428885
Peace Park,1.2408372,111.4558642,park,node,11979221821
Rumah Sri Aman,1.2419086,111.4563552,museum,node,11979221822
Tapak Hakisan Benak (Jalan Putus),1.291113,111.390503,attraction,node,12987001346
Sri Aman Interchange,1.1622782,111.4666896,attraction,node,13057421447
Taman Permainan RPR Simanggang,1.2152082,111.4646986,playground,node,13095483425
Burung Merpati Simanggang,1.2368862,111.4605645,attraction,way,1421967535
Tugu Merpati Mini,1.2332553,111.4658136,attraction,way,1422966266
Taman Permainan MDSA,1.2372551,111.4626234,playground,way,1423221414
Pekan Batang Ai,1.1506258,111.8627517,attraction,node,5036015421
Iban longhouse,1.1797328,111.9326252,attraction,node,6286590892
Gerbang Pekan Lubok Antu,1.059319,111.8339005,attraction,node,13055450239
Rumah Panjang Bali Gundi,0.96275,112.9336293,attraction,node,1447971823
Sungai Uluk Palin,1.051663,112.7819164,attraction,node,1447988673
Balai Sentra Handicrafts,0.8957791,112.9359142,attraction,way,574929537
Penyebrangan Long Wehea,1.0346651,116.8530915,viewpoint,node,4763141121
Longhouse MJIE,1.314345,116.9268561,viewpoint,node,4771982721
Waterboom Nayla Jaya,1.0876563,116.902889,water_park,node,4960285448
to GKOE,0.8744807,117.1686671,viewpoint,node,4445752190
to GKAE,0.8742912,117.1662892,viewpoint,node,4445761790
to GKNA,0.8763351,117.1247762,viewpoint,node,4487688693
to Baturedi,0.9181143,117.0009252,viewpoint,node,4763103621
I Nyoman Sukanita,1.0784089,117.7865911,viewpoint,node,5740114423
Agrowisata,0.8985679,117.8385633,park,way,1367334052
Patung Ajo Jatuh Bekudo,1.5831179,100.9860881,monument,node,12329996060
Patung Ikan Sopek,1.5131269,100.9716759,monument,node,12648963692
Tugu Tani,1.7176709,100.9975214,monument,node,12951373290
Tugu Juang,1.7744598,100.9437729,monument,node,12951373292
Tugu Pahlawan,1.6001026,100.9884748,monument,node,12951373293
Tugu Kodim 0321 Bukit Barisan,1.5491824,101.1775333,monument,node,12642161320
Tugu Kodim 0303 Bukit Barisan,1.4294358,101.1766577,monument,node,12642161355
Bundaran Kota Dumai,1.6585171,101.4490457,monument,node,12642217913
Tugu Ayam Jantan,1.6776976,101.0448242,monument,node,12951373270
lembaga IKPS DUMAI,1.6736711,101.4451708,park,way,539026032
kebun warga,1.6589626,101.4539326,park,way,625303870
kebun warga,1.6585618,101.4513374,park,way,625304374
kebun kelapa sawit,1.602813,101.4056598,park,way,628490659
kebun kelapa sawit,1.5984534,101.4044689,park,way,628490913
tugu burung silindid,1.6780276,101.441204,attraction,way,628749195
Kebun Kelapa Sawit,1.6665393,101.4762966,park,way,629054957
PT.PAS,1.6341717,101.4386291,park,way,638606970
Taman Bukit Gelanggang,1.6612566,101.4464896,park,way,638606974
Taman Kampong Pulai Bungkuk,1.6669444,101.4961758,park,way,638606976
Taman Telaga Tirta Patra,1.6406033,101.4101439,park,way,1359726682
Taman Mina Patra,1.6505235,101.4101893,park,way,1359726684
Taman Kota Bagan Cempedak,1.3753446,101.0031513,park,way,1365866538
Taman Kota,1.4675818,102.1084732,garden,node,3170326519
Tugu Bawang,1.4914304,102.089593,monument,node,3174030885
Tugu Batas Bantan,1.4949532,102.142475,monument,node,3263820895
Gerbang Pantai Selat Baru,1.5597339,102.2441755,monument,node,3263862880
BTS INDOLINE,1.4777883,102.1222195,viewpoint,node,4653904895
Water Boom,1.4901644,102.1262854,water_park,node,6318387679
Lapangan Tugu,1.4677845,102.1095021,park,way,311397081
Lapangan Pasir,1.4655988,102.1094934,park,way,311535564
Taman Air Mancur,1.4667064,102.1094962,park,way,311535765
lapangan TITD,1.4743856,102.1100859,park,way,685766603
halaman plaza,1.4776588,102.1043316,park,way,685774438
Museum Sultan Syarif Kasim Parit Bangkong,1.4729233,102.1033171,museum,way,1124807839
The Roundabout Tree,1.8468476,102.9381222,attraction,node,5433116545
Taman Rekreasi Tasik Y,1.8431598,102.9363098,park,node,6869568443
Dudu Durian Farm,1.789907,102.9258636,park,node,10872377352
GOH DURIAN FARM,1.7959787,102.9439285,park,node,10872528449
Perigi Batu Pahat,1.7959691,102.8894131,attraction,node,11750331828
Dataran Penggaram Batu Pahat,1.8467784,102.9345202,park,way,562981583
Taman Rekreasi Tasik Y,1.8431029,102.9366577,park,way,733527626
Taman Soga Park,1.8362561,102.9364141,park,way,804860484
Taman Mini Herba,1.8491945,102.9600811,garden,way,1265104615
Muzium Nanas,1.5073057,103.4467965,museum,node,5404610323
free durian,1.7798331,103.0969612,attraction,node,6313940185
Pantai Sungai Lurus,1.7278076,103.0284467,attraction,node,8785274135
Taman Awam Tepi Laut Pontian,1.4867749,103.3868065,park,way,563385656
Pontian Sultan Crown Park,1.4890373,103.386093,park,way,563386864
Taman Rekreasi Sungai Rambah,1.4280317,103.4123064,park,way,564383243
Laman Komuniti Taman Renggam Jaya,1.8358653,103.3295849,playground,way,778609044
Dataran IKS Simpang Renggam,1.8029745,103.3252378,park,way,780081404
Museum Bugis,1.4281571,103.4118507,museum,way,924024602
Laman Parit Raja,1.8484717,103.0743129,garden,way,1148004046
Alsagoff Park,1.4983845,103.384925,park,way,1247781066
Jelutong Tower,1.3513623,103.8063945,viewpoint,node,661034238
Kota Tinggi Waterfalls,1.830415,103.8322397,attraction,node,986334389
Aerie,1.4464602,103.7257789,viewpoint,node,1285282423
Padang Kampung Kopok Baru,1.5117811,103.9233247,playground,node,1842008352
Singapore Zoo,1.4045935,103.7907296,zoo,node,1857029103
Sanrio Hello Kitty Town,1.4168378,103.6569427,theme_park,node,1911019465
Legoland Malaysia Signboard,1.424604,103.6304793,viewpoint,node,2031222784
Educity Playground,1.4380018,103.6121225,playground,node,2043153008
Butterfly Garden,1.3575401,103.9861793,zoo,node,2544668348
Jejawi Tower,1.4095612,103.9899545,viewpoint,node,2967080194
Cool Blog,1.5616261,103.632166,common,node,3067842603
Little Big Club,1.4167068,103.6569956,attraction,node,3133247377
Koi pond,1.3572945,103.9860701,zoo,node,3294315861
Angry Bird,1.4631375,103.7633771,theme_park,node,3745589488
Chong Pang Zone 2 Residents' Committee,1.4301107,103.8287628,garden,node,3892011979
Chong Pang Zone 4 Residents' Committee Garden,1.4322416,103.8302604,garden,node,3892011980
Chong Pang Zone 1 Residents' Committee Garden,1.4323061,103.8268562,garden,node,3914856287
Raptor Tower,1.4165976,103.728495,viewpoint,node,3987228518
Haw Par Beach Villa,1.4103963,103.9222681,attraction,node,4008733889
Kampung Sungai Melayu,1.4521282,103.6928728,attraction,node,4087248494
Muzium Kota Tinggi,1.7373305,103.9122258,museum,node,4142073689
Berjaya Waterfront Food Truck Park,1.4691195,103.7819605,attraction,node,4226469389
Pocket Greens Urban Farm & Barn,1.3718548,103.7770068,attraction,node,4232943395
CHSL CH 0,1.3949731,103.6202919,attraction,node,4234717089
Puaka Hill,1.4080354,103.9594365,viewpoint,node,4281640467
Chek Jawa Wetlands,1.408688,103.9907677,attraction,node,4300422591
bunker,1.4568311,103.826719,attraction,node,4309387623
bunker,1.4582,103.8228486,attraction,node,4309401506
bunker,1.4547873,103.8266131,attraction,node,4309430621
JB 美乐 面线,1.5330001,103.7938786,attraction,node,4348205089
African White Lion,1.4024246,103.7882941,attraction,node,4400965576
Asian Wild Dog,1.4023575,103.7863757,attraction,node,4400965580
Bearded Pig,1.4022087,103.7861852,attraction,node,4400965584
Buffalo,1.4007634,103.7877543,attraction,node,4400965586
Chawang the Elephant,1.4022396,103.784527,attraction,node,4400965589
Clouded Leopard,1.4008975,103.7896721,attraction,node,4400965593
Elephant,1.402312,103.7852042,attraction,node,4400965594
Indian Wolves,1.4030038,103.7838645,attraction,node,4400965608
Malayan Tapir,1.4030493,103.7867311,attraction,node,4400965610
Nyala,1.4006334,103.7879153,attraction,node,4400965616
Oryx,1.3996426,103.7891216,attraction,node,4400965617
Possum,1.4030648,103.7878308,attraction,node,4400965620
Sambar Deer,1.4018239,103.7841266,attraction,node,4400965623
Sloth Bear,1.4001481,103.7889265,attraction,node,4400965625
Slow Loris,1.4027477,103.7900275,attraction,node,4400965627
Spiral Horned Antelope,1.4005677,103.7880567,attraction,node,4400965629
Sugar Glider,1.4031083,103.7878844,attraction,node,4400965632
Tawny Frogmouth Owl,1.4029448,103.7874829,attraction,node,4400965633
Tiger,1.4036138,103.7861443,attraction,node,4400965635
Wallaby,1.4027839,103.7880802,attraction,node,4400965638
White Lipped Python,1.4028599,103.7875051,attraction,node,4400965639
Zebra,1.3996413,103.788962,attraction,node,4400965640
Balai Cerap,1.5699654,103.6446965,viewpoint,node,4446988089
5 Finger Lake,1.552641,103.876316,viewpoint,node,4467748004
Condom Lorry,1.3767507,103.7837818,attraction,node,4564589708
Former Thai Temple,1.4168486,103.9521052,attraction,node,4564608589
Talbot Hill,1.4578442,103.7899138,attraction,node,4746147039
Ruins,1.3603133,103.8233783,attraction,node,4838324641
Ruins,1.3607876,103.8221125,attraction,node,4961680421
Ninja Trail,1.3917061,103.8950338,playground,node,4967837122
Johor Saleng Eco Village (Vipassana meditation centre),1.6400955,103.64081,attraction,node,4974485721
HSBC TreeTop Walk,1.3610473,103.8113955,viewpoint,node,5018172528
UTM ISÇ,1.5557801,103.6435473,attraction,node,5194648421
School of Postgraduate Studies UTM,1.5555116,103.6345532,attraction,node,5194657221
Kite Museum Pasir Gudang,1.4740442,103.9060608,museum,node,5253879660
Ruins,1.3599759,103.8211534,attraction,node,5273189422
Roof Garden,1.3942179,103.8733463,park,node,5284886057
Binturong,1.403056,103.7893234,attraction,node,5423452694
Himilayan Tahr,1.4032652,103.7890485,attraction,node,5423452695
Mouse Deer,1.4034435,103.7892255,attraction,node,5423452696
Fishing Cat,1.4031418,103.7895259,attraction,node,5423452697
Fishing Cat,1.4030279,103.7896587,attraction,node,5423452698
Pangolin,1.4028938,103.7896332,attraction,node,5423452699
Mouse Deer,1.4028563,103.7898237,attraction,node,5423452700
Civit,1.4027316,103.7897767,attraction,node,5423452701
Flying Fox,1.4025399,103.7897579,attraction,node,5423452702
Indian Gharial,1.4026123,103.7899336,attraction,node,5423452703
Barking Deer,1.4028683,103.7899886,attraction,node,5423452704
Asian Otter,1.4029957,103.7899148,attraction,node,5423452705
Barasingha,1.4017649,103.7903842,attraction,node,5423452706
Storks,1.4023334,103.7903695,attraction,node,5423452707
Fruit Bat,1.4003223,103.790918,attraction,node,5423452708
Spectral Tarsier,1.4005369,103.7907436,attraction,node,5423452709
Civit,1.4006334,103.7909099,attraction,node,5423452710
Porcupine,1.4007728,103.7906276,attraction,node,5423452711
Leopard Cat,1.4006374,103.7904446,attraction,node,5423452712
Hog Badger,1.4007071,103.7901998,attraction,node,5423452713
Giant Flying Squirrel,1.4007406,103.7900617,attraction,node,5423452714
Asian Otter,1.4008439,103.790228,attraction,node,5423452715
Golden Cat,1.4010731,103.7902099,attraction,node,5423452716
Slow Loris,1.4013601,103.7905492,attraction,node,5423452717
Sumatran Ourang Utan,1.4034462,103.7943197,attraction,node,5423452718
Malayan Sun Bear,1.4033081,103.7944444,attraction,node,5423452719
Spiny Hill Turtle,1.4030735,103.7945417,attraction,node,5423452720
Komodo Dragon,1.4031137,103.7948005,attraction,node,5423453421
Monitor,1.4030172,103.7950191,attraction,node,5423453422
Giant Tortoise,1.402875,103.7946355,attraction,node,5423453423
Horned Lizard,1.4028482,103.7948367,attraction,node,5423453424
Snakes,1.4025211,103.7947643,attraction,node,5423453425
Even here somewhere,1.4565802,103.7625554,attraction,node,5462566821
little india,1.4589737,103.7638968,attraction,node,5573564221
Observation Tower,1.3780953,103.7783677,viewpoint,node,5599660021
Firefly Valley Leisure Park,1.7031891,103.9129175,attraction,node,5712696421
Eco-Community Garden,1.3534614,103.9400377,garden,node,5813931525
Timezone,1.40672,103.9017861,amusement_arcade,node,5883303671
Monday Night Market,1.5163652,103.8213073,attraction,node,5884004387
Virtualand,1.3509491,103.8722241,amusement_arcade,node,5942836038
KidzPlay,1.3508355,103.8722842,playground,node,5942836041
MCM Studio,1.5063133,103.7166318,theme_park,node,5995603453
Terminal 2 Orchid Garden,1.3540762,103.9887044,attraction,node,6008885785
Happy Park,1.4069259,103.9021443,playground,node,6020812670
Proboscis Monkey,1.4020099,103.7958293,attraction,node,6024473086
Småland,1.3738592,103.9320405,playground,node,6141723799
Stream,1.3558024,103.7575638,attraction,node,6209861844
Log Bridge,1.386493,103.7892303,attraction,node,6209912502
889 Children's Playground,1.350183,103.9309334,playground,node,6238509985
Asrama Kebajikan Ar Rayyan,1.5765668,103.7190062,viewpoint,node,6246377787
Taman Bukit Dahlia Playground,1.4802588,103.8968011,playground,node,6351669730
Jetty,1.7277715,103.9084808,attraction,node,6380159734
PUB Water Rapid Flow,1.3571032,103.8045715,attraction,node,6512510561
The Playground,1.4061578,103.9019229,playground,node,6639726960
Wonderland,1.4061048,103.902033,playground,node,6639726974
Route 2 - closed 2019,1.4463836,103.7252312,viewpoint,node,6722078885
Route 2 - closed 2019,1.4453252,103.7242493,viewpoint,node,6722078985
Kwong Siew Heritage Gallery,1.4590751,103.7662649,museum,node,6746284985
rumah datin sarah,1.4696285,103.7459717,viewpoint,node,6801058093
MMHE-Malaysia Marine Heavy Engineering,1.4551379,103.8800122,viewpoint,node,6813433886
Street 61 Playground,1.3824673,103.840058,playground,node,6908248538
Petal Garden,1.3607744,103.9893688,attraction,node,6956299292
amigos horse riding,1.4414468,103.9381201,attraction,node,7033606987
Woodlands Jetty,1.4547912,103.7783277,viewpoint,node,7083277892
Pantai Stulang,1.4650016,103.7764707,viewpoint,node,7083277904
Discovery Garden,1.3619506,103.9917464,attraction,node,7176607485
Bunker,1.4474625,103.8241717,attraction,node,7194716360
Rainbow Bridge,1.4331759,103.7606836,attraction,node,7287289985
Visitors Intercom,1.3544776,103.9888639,viewpoint,node,7302301986
Kota Tinggi Firefly Park,1.7269449,103.9114621,attraction,node,7388192771
Tasik Biru Lookout,1.5726983,103.5765135,viewpoint,node,7634317696
Douc Langur,1.4053462,103.794496,attraction,node,7832186141
Colobus Monkey,1.405266,103.7949822,attraction,node,7832186142
Cassowary,1.4060753,103.7935963,attraction,node,7832186143
Tree Kangaroo,1.405976,103.7933102,attraction,node,7832186144
Wallaby,1.4058372,103.79304,attraction,node,7832186145
Meerkat,1.405231,103.7933181,attraction,node,7832186146
Red-ruffed Lemur,1.404113,103.7931666,attraction,node,7832186147
Butterfly Aviary,1.4021457,103.7954988,attraction,node,7836789018
Flying Fox,1.4024351,103.7954807,attraction,node,7836789019
Ring-tailed Lemur,1.4023989,103.7952545,attraction,node,7836789020
Pigmy Marmoset,1.4022542,103.7961366,attraction,node,7836789021
Naked Mole Rat,1.4019105,103.7948067,attraction,node,7836789022
Living Off The Land,1.382448,103.8222861,attraction,node,7900880085
HAN Family,1.3827701,103.8232709,attraction,node,7900890085
Southgate Community Garden,1.3870797,103.8949985,garden,node,7949709789
Former Mandai Hut (demolished),1.4026328,103.7764542,attraction,node,8132716617
World of Birdnest Museum,1.4191143,103.7187635,museum,node,8150714223
Seletar Aerospace Park,1.4087181,103.8682223,attraction,node,8209633718
Hyde Park Gate Garden,1.409485,103.8665365,attraction,node,8209633719
Boardwalk @ Seletar airport,1.4098004,103.866495,attraction,node,8209633817
Taman Permainan Sri Skudai,1.5466813,103.6503491,playground,node,8235441169
blue lake 1,1.6391023,103.5857078,viewpoint,node,8252369163
BOLOTREESG,1.4061443,103.90197,playground,node,8286036160
Log challenge,1.4166474,103.9159706,playground,node,8424454141
Kiap Kiap Rivervale Plaza,1.384982,103.90138,amusement_arcade,node,8448240724
Compassvale Villa RC Community Garden,1.3885469,103.8974207,garden,node,8448501866
Punggol Periwinkle Community Garden,1.3999052,103.9066844,garden,node,8474939107
Punggol Periwinkle Community Garden,1.4008579,103.9063648,garden,node,8474939110
Sengkang West Zone K Community Garden,1.3956943,103.8884987,garden,node,8481909304
Hammie,1.3718484,103.8478616,amusement_arcade,node,8556333497
Bouncing Kids,1.3580426,103.8849284,playground,node,8578225084
324D Sengkang West Zone B RC Community Garden,1.392799,103.8916554,garden,node,8620435937
HiClaw,1.3912662,103.8758705,amusement_arcade,node,8620920453
Sunshine Childhood Playland,1.3912487,103.8762047,playground,node,8620920466
ruins,1.3819818,103.822368,attraction,node,8735385317
Mangosteen Playground,1.3540067,103.9384409,playground,node,9070877958
Watermelon Playground,1.3540297,103.9379059,playground,node,9070877959
Rooftop garden,1.3530961,103.940193,garden,node,9082683636
Cow Play Cow Moo,1.3545609,103.8303141,amusement_arcade,node,9271267299
Motorbike (NBE),1.365281,103.784848,attraction,node,9284717787
Estuarine Crocodile,1.4027356,103.7953868,attraction,node,9288364791
Indian Gharial,1.4034623,103.7947954,attraction,node,9288364792
Ploughshare Tortoise,1.4031995,103.7949845,attraction,node,9288364800
Goat,1.4032444,103.7967447,attraction,node,9288368317
Rabbit,1.4032297,103.7969398,attraction,node,9288368318
Animal Friends,1.4035722,103.7964651,attraction,node,9288368319
Fossa,1.4020519,103.7948169,attraction,node,9288368358
Leopard,1.4016765,103.7946412,attraction,node,9288368359
Lion,1.4016202,103.7943488,attraction,node,9288368360
Giraffe,1.4012555,103.7941691,attraction,node,9288368361
Zebra,1.4016604,103.7939143,attraction,node,9288368362
Warthog,1.4020438,103.7942201,attraction,node,9288368363
African Painted Dog,1.4029367,103.7939572,attraction,node,9288368364
Cheetah,1.4024943,103.7941182,attraction,node,9288368365
White Tailed Gnu,1.4023066,103.7937292,attraction,node,9288368366
Eland,1.4026391,103.7934664,attraction,node,9288368367
White Rhinoceros,1.4028697,103.7933779,attraction,node,9288368368
Mandrill,1.402257,103.7959582,attraction,node,9288368369
Chimpanzee,1.4027544,103.7960601,attraction,node,9288368373
Bornean Orang Utan,1.4035333,103.7939787,attraction,node,9288368378
Nubian Ibex,1.4058849,103.7935656,attraction,node,9288368379
Cotton-top Tamarin,1.4052079,103.794259,attraction,node,9288368380
Spider Monkey,1.4048861,103.7945111,attraction,node,9288368381
Splash Safari,1.4044946,103.7949456,attraction,node,9288368382
Africa Penguin,1.4039664,103.7941276,attraction,node,9288368398
Black-and-white Ruffed Lemur,1.4051583,103.7952581,attraction,node,9288368399
Capuchin Monkey,1.4052213,103.7952863,attraction,node,9288368400
Lion-Tailed Macaque,1.4049518,103.794959,attraction,node,9288368401
Asian Elephant,1.4052897,103.79582,attraction,node,9288368402
Brickosaurs,1.4060217,103.7949161,attraction,node,9288368427
Rainforest Fights Back,1.4045174,103.7950301,attraction,node,9288368439
Serval,1.4049706,103.7937078,attraction,node,9288368440
Hamadryas Baboon,1.4055404,103.7935804,attraction,node,9288368441
Grey Kangaroo,1.4060565,103.7932357,attraction,node,9288368443
Red River Hog,1.4055149,103.7930185,attraction,node,9288368444
Pygmy Hippo,1.4052213,103.7930077,attraction,node,9288368445
Pelican,1.4041983,103.7927885,attraction,node,9288368446
Gibbon,1.40413,103.7930238,attraction,node,9288368447
Polar Bear,1.4035535,103.7931029,attraction,node,9288368454
White Tiger,1.4047588,103.7930506,attraction,node,9288368461
Anoa,1.4048057,103.792256,attraction,node,9288368513
Valley of Brickosaurs,1.4046676,103.7921501,attraction,node,9288368517
Babirusa,1.4046837,103.7925142,attraction,node,9288368522
Asian Small-Clawed Otter,1.4047226,103.7920234,attraction,node,9288368523
Proboscis Monkey,1.4046455,103.7915084,attraction,node,9288368524
Siamang,1.4051248,103.7917129,attraction,node,9288368528
Pacu,1.4032692,103.7903953,attraction,node,9288368585
Arapaima,1.4033349,103.7903443,attraction,node,9288368586
Manatee,1.4033416,103.7904556,attraction,node,9288368587
Red-tailed Catfish,1.4034073,103.7904167,attraction,node,9288368588
Red-bellied Piranha,1.4033993,103.7905253,attraction,node,9288368589
Electric Eel,1.4030018,103.790524,attraction,node,9288368590
Giant River Otter,1.4031975,103.7906098,attraction,node,9288368591
Cuvier's Dwarf Caiman,1.4031901,103.7911905,attraction,node,9288368593
Yellow-footed Tortoise,1.4028751,103.7913052,attraction,node,9288368600
Bare-faced Curassow,1.4027745,103.7915922,attraction,node,9288368603
Golden Headed Lion Tamarin,1.4027303,103.791617,attraction,node,9288368604
Green Anacondo,1.4026673,103.7916525,attraction,node,9288368605
Carribbean Flamingo,1.4028523,103.7910698,attraction,node,9288368606
Capybara,1.4025882,103.7914574,attraction,node,9288368634
Silver Arowana,1.4028335,103.7915439,attraction,node,9288368635
White-faced Saki Monkey,1.4031921,103.7908962,attraction,node,9288368639
Squirrel Monkey,1.4029555,103.7913018,attraction,node,9288368640
Black Howler Monkey,1.4030306,103.7910779,attraction,node,9288368641
Brazilian Tapir,1.4028509,103.7906863,attraction,node,9288368656
Brazilian Tapir,1.4025104,103.7908338,attraction,node,9288368657
Guanaco,1.4021913,103.791212,attraction,node,9288368658
Giant Anteater,1.4017536,103.7914903,attraction,node,9288368705
Red Howler Monkey,1.4016745,103.7916378,attraction,node,9288368714
Bearded Saki,1.4015585,103.7915325,attraction,node,9288368737
Tufted Capuchin,1.4015451,103.7917525,attraction,node,9288368738
Collared Peccary,1.4017449,103.7917974,attraction,node,9288368750
Giant Panda,1.4037639,103.7924733,attraction,node,9288368780
Red Panda,1.4038149,103.7923305,attraction,node,9288368781
Sturgeon,1.4038853,103.7922198,attraction,node,9288368782
Chinese Giant Salamander,1.4039369,103.7922353,attraction,node,9288368783
Yangtze Alligator,1.4039825,103.7922487,attraction,node,9288368784
Giant Freshwater Stingray,1.4041675,103.7918597,attraction,node,9288368793
Mekong Giant Catfish,1.4042218,103.7918879,attraction,node,9288368799
Storks,1.4041065,103.7920649,attraction,node,9288368800
Fire Eel,1.4040596,103.7920267,attraction,node,9288368801
Lion-Tailed Macaque,1.4039496,103.7919436,attraction,node,9288368802
Horseshoe Crab,1.4037288,103.7918708,attraction,node,9288368803
Mudskipper,1.4037509,103.7918369,attraction,node,9288368804
Archerfish,1.4037656,103.7918145,attraction,node,9288368805
Australian Lungfish,1.4037921,103.7917726,attraction,node,9288368806
Indian Gharial,1.4038152,103.7916623,attraction,node,9288368807
Tigerfish,1.4039292,103.791043,attraction,node,9288368808
African Dwarf Crocodile,1.4039925,103.7909612,attraction,node,9288368809
Kribensis,1.4040737,103.7911521,attraction,node,9288368810
Reedfish,1.4040631,103.7911526,attraction,node,9288368811
Elephantnose Fish,1.4040559,103.791091,attraction,node,9288368812
Eastern Battlenose,1.4040569,103.7910759,attraction,node,9288368813
Tigerfish,1.4040579,103.7910343,attraction,node,9288368814
Atlantic Tarpons,1.4040592,103.7909927,attraction,node,9288368815
Trumpeter Hornbill,1.4041809,103.7910618,attraction,node,9288368816
Gibraltar Crescent Bunker,1.457724,103.835147,attraction,node,9444725476
Switch 3272 NBE,1.411226,103.756232,attraction,node,9455014398
Coral Park Magic Tree,1.3539848,103.8436927,attraction,node,9482434887
Johor Bahru Chinese Heritage Museum,1.4560242,103.7632774,museum,node,9590275022
Lonely tree,1.3994012,103.9582006,attraction,node,9671017625
Kidztopia Club,1.4074622,103.9031284,playground,node,9776505301
Our Tampines Gallery,1.3523281,103.941093,museum,node,9810686286
"rock markings by visitors, stone balancing art",1.3556929,103.7826453,attraction,node,9821433868
Event Lawn,1.3613679,103.8482535,park,node,10002372751
shrimp pond,1.4755173,103.9426959,water_park,node,10057332542
Bethesda Garden,1.3983296,103.8960607,garden,node,10065548495
Cow Play Cow Moo,1.3757226,103.8792349,amusement_arcade,node,10095244434
Splash @ Kidz Amaze,1.4100711,103.9063108,water_park,node,10102513975
Play United,1.3727247,103.8937624,amusement_arcade,node,10225570284
Shell town,1.5234139,103.8489496,viewpoint,node,10269561758
Fanpekka,1.5491758,103.795191,playground,node,10280498533
KF1 Kiddy Circuit,1.5006544,103.7783065,playground,node,10284820030
Molly Fantasy,1.4814308,103.6557993,playground,node,10285403151
Kidzoona,1.4814496,103.6554198,playground,node,10285403152
Pipes,1.3507915,103.7850961,attraction,node,10310525733
Fun Scape,1.3970583,103.6307589,amusement_arcade,node,10583186305
Thong Soon Green Playground,1.400101,103.8183234,playground,node,10795011599
Fun Scape,1.5529309,103.7982582,amusement_arcade,node,10983433602
Perdana Park Homes,1.5656174,103.610001,park,node,10996581443
Playground Pulai Heights,1.5584746,103.6127892,park,node,10996581446
Pulai Perdana Recreation Park,1.5600271,103.6121707,park,node,10996581454
Zone X,1.3852014,103.7449912,amusement_arcade,node,11024163584
Elephant rock,1.635804,103.7351422,attraction,node,11078607495
sambawang,1.4626078,103.8370301,viewpoint,node,11124181364
Permas Go-Kart,1.5359779,103.8526768,attraction,node,11145448105
RUD Karting Medini,1.405086,103.6256722,attraction,node,11145697605
Sarang Buaya Pasir Gudang,1.4425345,103.9985207,attraction,node,11383217664
GT Karting,1.5543013,103.7949072,attraction,node,11461074169
Ubin Fruit Orchard,1.4095556,103.9726059,garden,node,11673385802
Carton Box Theme Park,1.4865186,103.7611203,theme_park,node,11676731626
Bishan Active Park Playground,1.3561271,103.8471515,playground,node,11809539048
Pasir Ris Atlantis Park,1.3739406,103.9582861,playground,node,11809539049
Blk 852 Dragon Playground,1.4393065,103.7922806,playground,node,11809743869
Playground @ Pasir Ris Central Hawker Centre,1.3733966,103.9520393,playground,node,11810728374
Sheltered playground,1.3514549,103.9356545,playground,node,11846713135
blue lake 2,1.6321452,103.573869,viewpoint,node,11868113665
blue lake 1,1.6391103,103.5857279,viewpoint,node,11919233205
Mangrove Gallery,1.4404805,103.7355896,museum,node,12053289881
Intake Sg Tiram,1.5841173,103.894104,viewpoint,node,12071306508
Timezone,1.3746297,103.9487415,amusement_arcade,node,12144138743
Funclaw,1.4066561,103.9021969,amusement_arcade,node,12210303067
Pokémon Ga-Olé,1.3551054,103.9867131,amusement_arcade,node,12245486091
Playground Flat sri saujana,1.6766027,103.8537515,park,node,12373439701
Playground depan sekolah,1.6670709,103.860108,park,node,12375128801
Cow Play Cow Moo,1.4181875,103.9011136,amusement_arcade,node,12399113606
Iora's Nest,1.3998069,103.7918059,viewpoint,node,12517823617
Eagle's Perch,1.4037648,103.7950373,viewpoint,node,12558633461
Kingfisher's cove,1.4057509,103.7911443,viewpoint,node,12558642087
Damselfly's Wing,1.4009919,103.7940384,viewpoint,node,12558655771
Cow Play Cow Moo,1.3523285,103.9436774,amusement_arcade,node,12573500741
Wild Cavern Adventure,1.4081331,103.7823191,attraction,node,12630420019
Wild Apex Adventure,1.4100242,103.7797486,attraction,node,12630420020
Canopy Jump,1.4098631,103.7823814,attraction,node,12630420021
Blind Cave Fish,1.4082451,103.7818683,attraction,node,12630420028
Estuarine Crocodile,1.4085907,103.7815149,attraction,node,12630420050
Phillipine Spotted Deer,1.4104371,103.7836819,attraction,node,12630420051
Siamang,1.4099773,103.7833604,attraction,node,12630420052
Red-Shanked Douc Langur,1.4101145,103.7835872,attraction,node,12630420053
Javan Langur,1.410239,103.7833381,attraction,node,12630420054
Asian Brown Tortoise,1.4098888,103.7806625,attraction,node,12630420055
Southern River Terrapin,1.4092631,103.780942,attraction,node,12630420056
Asian Black Scorpion,1.4085985,103.7812736,attraction,node,12630420057
Madagascar Hissing Cockroach,1.4080778,103.782277,attraction,node,12630420058
Cave Racer,1.4084179,103.7815289,attraction,node,12630420059
Hog Deer,1.4099604,103.7808906,attraction,node,12630420060
Francois' Langur,1.4098592,103.7798054,attraction,node,12630449339
Malayan Tiger,1.4102156,103.7823354,attraction,node,12630449340
Red Dhole,1.4101759,103.7814768,attraction,node,12630449341
Karst Lookout,1.4097415,103.7799384,viewpoint,node,12630449431
Taman Permainan Hazel,1.5112218,103.9538716,playground,node,12672252901
Wild Cow,1.372296,103.9496074,amusement_arcade,node,12721913418
ST Aerospace A-4SU Super Skyhawk,1.3742729,103.713114,monument,node,12844662088
Ring-tailed Lemur,1.4055206,103.7950278,attraction,node,13049604601
Giant Gourami,1.405497,103.7946887,attraction,node,13049604701
Arapaima,1.405289,103.7942534,attraction,node,13049604801
Mini Monkeys,1.4052567,103.7942377,attraction,node,13049610003
Hamadryas Baboon,1.4056769,103.7939919,attraction,node,13049610901
Seri Alam tunnel,1.5273842,103.8531015,attraction,node,13238212103
Punggol Park,1.3769458,103.8986514,park,way,22929085
Yishun Park,1.4244901,103.8426318,park,way,33175767
Pasir Ris Town Park,1.3721694,103.9523432,park,way,34424183
Ang Mo Kio Town Garden East,1.3711279,103.8503298,park,way,37356325
Bishan-Ang Mo Kio Park,1.3606097,103.8473072,park,way,37408625
Bishan-Ang Mo Kio Park,1.36523,103.8356211,park,way,37408875
Ang Mo Kio Town Garden West,1.3744994,103.8429259,park,way,37522115
Chestnut Drive Playground,1.3676265,103.768824,playground,way,43634809
Cashew Crescent Fitness Corner,1.3722857,103.7694949,park,way,43700119
Almond Crescent Playground,1.3732271,103.7719219,playground,way,43700576
Sembawang Park,1.4614017,103.8367754,park,way,48958599
Nature Gallery,1.4024139,103.9709177,museum,way,54725325
Vista Park,1.4297572,103.796139,park,way,71074796
Taman Istana Besar,1.4588297,103.7557185,park,way,106590698
Soo Chow Garden,1.3536697,103.8320035,park,way,117038437
Jupiter Road Playground,1.3582715,103.8251499,playground,way,117038444
Bishan Active Park,1.356515,103.8470904,park,way,117043433
Admiralty Park,1.4463871,103.7814018,park,way,118272708
Bukit Batok Hillside Park,1.3589794,103.7453185,park,way,123096145
Fu Shan Garden,1.4406404,103.7901634,park,way,125303509
Maplewood Park,1.352554,103.885142,park,way,139671235
Aroozoo Avenue Playground,1.3551917,103.8859623,park,way,139671238
Serangoon Community Park,1.3564651,103.8720792,park,way,139683448
Mei Hwan Crescent Playground,1.3527645,103.8617474,park,way,140813442
Woodlands Crescent Park,1.4450217,103.8038978,park,way,146763038
Circle Green,1.4432666,103.7977992,park,way,154251901
Woodlands Admiral Garden,1.43773,103.8003985,park,way,154260726
Mandai Tekong Park,1.4351361,103.7937819,park,way,154430012
Dew Garden,1.3992064,103.8710645,park,way,158212198
Mimosa Terrace Playground,1.383932,103.8604555,park,way,158215482
Begonia Road Playground,1.3879995,103.8633881,park,way,158217732
Mimosa Road Playground,1.3841917,103.8629747,park,way,158217733
Neram Crescent Playground,1.3855878,103.8657486,park,way,158217734
Nim Crescent Playground,1.3830819,103.8668416,park,way,158217735
Dedap Place Playground,1.3877776,103.868415,park,way,158217807
Tamarind Road Playground,1.3896992,103.8601926,park,way,158217808
Stratton Walk Playground,1.379093,103.8669233,park,way,158379318
Mimosa Walk Playground,1.3831114,103.8614611,park,way,158465513
Lilac Drive Playground,1.3811382,103.861146,park,way,158466372
